,URL,Roaster Location_search,Roaster Latitude,Roaster Longitude
0,https://www.coffeereview.com/review/100-arabica-100-italiano/,"Caffe Bomrad, Torino, Italy",45.0703155,7.6868552
1,https://www.coffeereview.com/review/100-arabica-black-label-ese-pod/,"Lucaff?, Padenghe sul Garda, Italy",45.4958159,10.511448
2,https://www.coffeereview.com/review/100-arabica-coffee-puerto-rico/,"Caribeans, San Juan, Puerto Rico",18.454191,-66.0705833
3,https://www.coffeereview.com/review/100-arabica-freeze-dried-colombian-instant-coffee/,"Waka Coffee, Los Angeles, California",34.0549076,-118.242643
4,https://www.coffeereview.com/review/100-arabica-instant-coffee/,"Yuban, Northfield, Illinois",42.09975,-87.7808967
5,https://www.coffeereview.com/review/100-arabica/,"Great Value (Wal-Mart), Bentonville, Arkansas",36.3723561,-94.21021410000002
6,https://www.coffeereview.com/review/100-colombia-dark-roast/,"Kirkland Signature (Costco), Seattle, Washington",47.5653465,-122.3304717
7,https://www.coffeereview.com/review/100-colombia-instant-coffee/,"Trader Joe's, Monrovia, California",34.1379703,-118.012129
8,https://www.coffeereview.com/review/100-colombian-2/,"Yuban, Rye Brook, New York",41.0188032,-73.6813591
9,https://www.coffeereview.com/review/100-colombian-3/,"Folgers, Cincinnati, Ohio",39.1031182,-84.5120196
10,https://www.coffeereview.com/review/100-colombian-4/,"Folgers, Orrville, Ohio",40.8474375,-81.7623526
11,https://www.coffeereview.com/review/100-colombian-5/,"Great Value (Walmart), Bentonville, Arkansas",36.3574782,-94.2146461
12,https://www.coffeereview.com/review/100-colombian-6/,"Eight O'Clock Coffee (Walmart), Montvale, New Jersey",41.05960049999999,-74.05266759999999
13,https://www.coffeereview.com/review/100-colombian-ground-coffee/,"Safeway Kitchens, Pleasanton, California",37.6604484,-121.8757968
14,https://www.coffeereview.com/review/100-colombian-medium-roast/,"Maxwell House, Northfield, Illinois",42.09975,-87.7808967
15,https://www.coffeereview.com/review/100-colombian-realcup-capsule/,"Brown Gold, Mississauga, Canada",43.5933416,-79.6421639
16,https://www.coffeereview.com/review/100-colombian-whole-bean/,"Eight O'Clock Coffee, Montvale, New Jersey",41.0446809,-74.0818536
17,https://www.coffeereview.com/review/100-colombian/,"Yuban Coffee Company, White Plains, New York",41.0332209,-73.7650415
18,https://www.coffeereview.com/review/100-colombia/,"HealthWise Gourmet Low Acid Coffee, Deer Park, Illinois",42.1608585,-88.0814651
19,https://www.coffeereview.com/review/100-ethiopian-k-cup/,"Brown Gold, Mississauga, Canada",43.5933416,-79.6421639
20,https://www.coffeereview.com/review/100-ethiopian/,"Brown Gold, Mississauga, Canada",43.5933416,-79.6421639
21,https://www.coffeereview.com/review/100-guatemalan-highland-arabica-coffee/,"Cafe P11, Antigua, Guatemala",14.5637143,-90.73744289999999
22,https://www.coffeereview.com/review/100-guatemalan/,"Hill's Bros. Coffee, San Francisco, California",37.7894748,-122.3892934
23,https://www.coffeereview.com/review/100-hawaiian-coffee-hamakua-estate/,"Javaloha, Pa'auilo, Hawaii",20.039111,-155.3679615
24,https://www.coffeereview.com/review/100-jamaica-blue-mountain/,"Stoneleigh Coffee, Toronto, Ontario, Canada",43.6773341,-79.4979573
25,https://www.coffeereview.com/review/100-kau-classic/,"Rusty's Hawaiian, Pahala, Hawaii",19.2025209,-155.477252
26,https://www.coffeereview.com/review/100-kau-coffee-medium-roast/,"Rusty's Hawaiian, Pahala, Hawaii",19.2025209,-155.477252
27,https://www.coffeereview.com/review/100-kau-navarro/,"Pacific Coffee Research, Kealakekua, Kona, “Big Island” of Hawai’i",19.7335652,-155.9893592
28,https://www.coffeereview.com/review/100-kona-bourbon-pointu-laurina-2/,"Hula Daddy Kona Coffee, Holualoa, Hawaii",19.6798923,-155.9702264
29,https://www.coffeereview.com/review/100-kona-bourbon-pointu-laurina-3/,"Hula Daddy Kona Coffee, Holualoa, Hawaii",19.6798923,-155.9702264
30,https://www.coffeereview.com/review/100-kona-bourbon-pointu-laurina-4/,"Hula Daddy Kona Coffee, Holualoa, Hawaii",19.6798923,-155.9702264
31,https://www.coffeereview.com/review/100-kona-bourbon-pointu-laurina-5/,"Hula Daddy Kona Coffee, Holualoa, Hawaii",19.6798923,-155.9702264
32,https://www.coffeereview.com/review/100-kona-bourbon-pointu-laurina-6/,"Hula Daddy Kona Coffee, Holualoa, Hawaii",19.6798923,-155.9702264
33,https://www.coffeereview.com/review/100-kona-bourbon-pointu-laurina/,"Hula Daddy, Holualoa, Hawaii",19.6798923,-155.9702264
34,https://www.coffeereview.com/review/100-kona-bourbon/,"Hala Tree Kona Coffee, Captain Cook, Hawaii",19.4827139,-155.8988217
35,https://www.coffeereview.com/review/100-kona-coffee-medium-roast/,"Kona Cafe, Captain Cook, Hawaii",19.4554834,-155.8798777
36,https://www.coffeereview.com/review/100-kona-coffee/,"Starbucks Reserve Roastery, Seattle, Washington",47.61404,-122.3281
37,https://www.coffeereview.com/review/100-kona-estate-grade/,"Moonstruck Farm, Captain Cook, Hawaii",19.4889833,-155.9101252
38,https://www.coffeereview.com/review/100-kona-extra-fancy-2/,"Kona Hills Coffee, Captain Cook, Hawai’i",19.435537,-155.871376
39,https://www.coffeereview.com/review/100-kona-extra-fancy/,"Hula Daddy, Holualoa, Hawaii",19.6798923,-155.9702264
40,https://www.coffeereview.com/review/100-kona-fancy/,"Downtown Coffee, Honolulu, Hawaii",21.3091011,-157.8625326
41,https://www.coffeereview.com/review/100-kona-grown-brazilian-typica/,"Hula Daddy, Holualoa, Hawaii",19.6798923,-155.9702264
42,https://www.coffeereview.com/review/100-kona-high-mountain-io-extra-fancy/,"Hula Daddy, Holualoa, Hawaii",19.6798923,-155.9702264
43,https://www.coffeereview.com/review/100-kona-high-mountain-io-fancy-2/,"Hula Daddy, Holualoa, Hawaii",19.6798923,-155.9702264
44,https://www.coffeereview.com/review/100-kona-high-mountain-io-fancy/,"Hula Daddy, Holualoa, Hawaii",19.6798923,-155.9702264
45,https://www.coffeereview.com/review/100-kona-k-cup/,"Green Mountain Coffee, Waterbury, Vermont",44.3350974,-72.75185479999999
46,https://www.coffeereview.com/review/100-kona-medium-roast/,"Trader Joe's, Pasadena, California",34.1476527,-118.144302
47,https://www.coffeereview.com/review/100-kona-pau-hana-estate-organic/,"Pele Plantations, Honaunau, Hawaii",19.421344,-155.8777429
48,https://www.coffeereview.com/review/100-kona-peaberry-dark-roast/,"Bay View Farm, Honaunau, Hawaii",19.4419172,-155.8896248
49,https://www.coffeereview.com/review/100-kona-private-reserve/,"Hula Daddy, Holualoa, Hawaii",19.6798923,-155.9702264
50,https://www.coffeereview.com/review/100-kona-sl-28/,"Hula Daddy Kona Coffee, Holualoa, Hawaii",19.6798923,-155.9702264
51,https://www.coffeereview.com/review/100-kona-typica/,"Kona Farm Direct, Holualoa, Hawaii",19.6351617,-155.9497219
52,https://www.coffeereview.com/review/100-kona/,"Green Mountain Coffee, Waterbury, Vermont",44.3350974,-72.75185479999999
53,https://www.coffeereview.com/review/100-organic-specialty-arabica/,"Colibrije Specialty Coffee, Mexico City, Mexico",19.2841655,-98.94137789999999
54,https://www.coffeereview.com/review/100-percent-kona-coffee-extra-fancy-medium-roast/,"Kona Cafe, Captain Cook, Hawaii",19.4554834,-155.8798777
55,https://www.coffeereview.com/review/100-percent-kona/,"J. Tudor Estate, Holualoa, Hawaii",19.646796,-155.9274138
56,https://www.coffeereview.com/review/100-percent-mexican-organic/,"Finca Las Nieves, San Juan Lachao, Oaxaca, Mexico",16.1577714,-97.12446159999999
57,https://www.coffeereview.com/review/100-percent-puna-kazumura-reserve-peaberry-medium-dark/,"Big Island Coffee Roasters, Mountain View, Hawaii",19.5305612,-155.131581
58,https://www.coffeereview.com/review/100-peruvian-realcup-capsule/,"Brown Gold, Mississauga, Canada",43.5933416,-79.6421639
59,https://www.coffeereview.com/review/100-pure-jamaican-blue-mountain-coffee/,"Dauphin Kaffee, Miami, Florida",25.7616798,-80.1917902
60,https://www.coffeereview.com/review/100-pure-mexican/,"Finca Las Nieves, San Juan Lachao, Oaxaca, Mexico",16.1577714,-97.12446159999999
61,https://www.coffeereview.com/review/100-sumatra-lintong/,"Trader Joe's, Monrovia, California",34.1379703,-118.012129
62,https://www.coffeereview.com/review/100-tanzanian/,"Coffees of the World (Sam's Club), San Francisco, California",37.7749295,-122.4194155
63,https://www.coffeereview.com/review/100-waialua-peaberry/,"Daylight Mind Coffee Company, Kailua, Kona",19.6362496,-155.9921938
64,https://www.coffeereview.com/review/12680/,"Wonderstate Coffee, Driftless, Wisconsin",43.7844397,-88.7878678
65,https://www.coffeereview.com/review/12829/,"Temple Coffee and Tea, Sacramento, California",38.5781342,-121.4944209
66,https://www.coffeereview.com/review/130-blend/,"Jaunt Coffee Roasters, San Diego, California",32.8965857,-117.1374155
67,https://www.coffeereview.com/review/13867/,"Green Mountain Coffee, Waterbury, Vermont",44.3350974,-72.75185479999999
68,https://www.coffeereview.com/review/14080/,"Temple Coffee and Tea, Sacramento, California",38.5781342,-121.4944209
69,https://www.coffeereview.com/review/14440/,"Big Nose Cafe, Hsinchu, Taiwan, China",24.8138287,120.9674798
70,https://www.coffeereview.com/review/14th-street-espresso/,"De La Paz Coffee, San Francisco, California",37.7794661,-122.4102894
71,https://www.coffeereview.com/review/165-espresso/,"Barrington Coffee Roasting Co., Lee, Massachusetts",42.28408810000001,-73.2572708
72,https://www.coffeereview.com/review/18743/,"JBC Coffee Roasters, Madison, Wisconsin",43.051081,-89.2787255
73,https://www.coffeereview.com/review/1971-nicaragua-viennese-roast/,"Las Chicas Del Café, London, Ontario, Canada",42.92149999999999,-81.2607
74,https://www.coffeereview.com/review/19793/,"modcup coffee, Jersey City, New Jersey",40.745012,-74.0438276
75,https://www.coffeereview.com/review/1994-blend-2/,"Coffee by Design, Portland, Maine",43.6661104,-70.2565537
76,https://www.coffeereview.com/review/1994-blend/,"Coffee by Design, Portland, Maine",43.6661104,-70.2565537
77,https://www.coffeereview.com/review/2007-ethiopia-limited-yirgacheffe-idido-teramal/,"Paradise Roasters, Ramsey, Minnesota",45.2611,-93.45
78,https://www.coffeereview.com/review/2012-esmeralda-special-natural-panama/,"CafeTaster, I-Lan City, Taiwan",24.7591148,121.7537404
79,https://www.coffeereview.com/review/2019-celebration/,"Highwire Coffee Roasters, Emeryville, California",37.8436858,-122.2518736
80,https://www.coffeereview.com/review/2020-savage-auction-deborah-carbonic-macerated-natural-geisha/,"Kakalove Cafe, Chia-Yi, Taiwan",23.4741204,120.4333647
81,https://www.coffeereview.com/review/23896/,"Mostra Coffee, San Diego, California",32.715738,-117.1610838
82,https://www.coffeereview.com/review/24015/,"Coffee Please, Taipei, Taiwan",25.1377344,121.485176
83,https://www.coffeereview.com/review/40-hour-ethiopia-girma-eshetu/,"Columbia Street Roastery, Champaign, Illinois",40.1211972,-88.2420722
84,https://www.coffeereview.com/review/40-sardines-blend/,"The Roasterie, Kansas City, Missouri",39.0997265,-94.5785667
85,https://www.coffeereview.com/review/401-italian-style-espresso-blend/,"AKA Coffee Roasters, Xitun District, Taichung, Taiwan",24.1769764,120.6424333
86,https://www.coffeereview.com/review/414-kenya-sl34/,"Mr. Chao Coffee, New Taipei City, Taiwan",25.0169826,121.4627868
87,https://www.coffeereview.com/review/420-french-roast/,"Red Rooster Coffee Roaster, Floyd, Virginia",36.9164429,-80.3093313
88,https://www.coffeereview.com/review/423-blend/,"Roast House, Spokane, Washington",47.68462299999999,-117.40377
89,https://www.coffeereview.com/review/44%cb%9an-68%cb%9aw-bar-harbor/,"Coffee Hound, Brewer, Maine",44.7851034,-68.7674243
90,https://www.coffeereview.com/review/5a-poniente-2/,"El Gran Cafe, Antigua, Guatemala",14.5562069,-90.7346424
91,https://www.coffeereview.com/review/5a-poniente-3/,"El Gran Cafe, Antigua, Guatemala",14.5562069,-90.7346424
92,https://www.coffeereview.com/review/5a-poniente-4/,"El Gran Cafe, Antigua, Guatemala",14.5562069,-90.7346424
93,https://www.coffeereview.com/review/5a-poniente-5/,"El Gran Cafe, Antigua, Guatemala",14.5562069,-90.7346424
94,https://www.coffeereview.com/review/5a-poniente/,"El Gran Café, Antigua, Guatemala",14.5562069,-90.7346424
95,https://www.coffeereview.com/review/5a-sur-2/,"El Gran Cafe, Antigua, Guatemala",14.5562069,-90.7346424
96,https://www.coffeereview.com/review/5a-sur-3/,"El Gran Cafe, Antigua, Guatemala",14.5562069,-90.7346424
97,https://www.coffeereview.com/review/5a-sur-4/,"El Gran Cafe, Antigua, Guatemala",14.5562069,-90.7346424
98,https://www.coffeereview.com/review/5a-sur-5/,"El Gran Cafe, Antigua, Guatemala",14.5562069,-90.7346424
99,https://www.coffeereview.com/review/5a-sur/,"El Gran Café, Antigua, Guatemala",14.5562069,-90.7346424
100,https://www.coffeereview.com/review/5s-select-coffee-bean/,"Belray Coffee, Shanghai, China",31.230416,121.473701
101,https://www.coffeereview.com/review/6-tigers-aged-sumatra/,"The Roasterie, Kansas City, Missouri",39.0997265,-94.5785667
102,https://www.coffeereview.com/review/704-blend/,"Charlotte Coffee Company, Charlotte, North Carolina",35.1938934,-80.7856606
103,https://www.coffeereview.com/review/9-bar/,"Fidalgo Coffee, Burlington, Washington",48.4905193,-122.325606
104,https://www.coffeereview.com/review/90-mile-stretch-espresso-ese-pod/,"Island Joe's Coffee, Key West, Florida",24.5591682,-81.80484109999999
105,https://www.coffeereview.com/review/90-mile-stretch-espresso/,"Island Joe's Coffee, Key West, Florida",24.5591682,-81.80484109999999
106,https://www.coffeereview.com/review/a-cafe-kind-of-day-colombian-pod/,"Melitta, Clearwater, Florida",27.8987422,-82.7118485
107,https://www.coffeereview.com/review/aa-green/,,,
108,https://www.coffeereview.com/review/abu-natural-panama-geisha/,"Klatch Coffee, Los Angeles, California",33.9421889,-118.3999144
109,https://www.coffeereview.com/review/abyssinian-blend/,"Indigenous Coffees, Santa Barbara, California",34.420285,-119.698935
110,https://www.coffeereview.com/review/acacia-hills-geisha/,"JBC Coffee Roasters, Madison, Wisconsin",43.051081,-89.2787255
111,https://www.coffeereview.com/review/acatenango-pacamara-natural/,"Qin Mi Coffee, Taoyuan City, Taiwan",24.9925185,121.305975
112,https://www.coffeereview.com/review/acatenango-santa-felisa-wild-yeast-natural-sudan-rume-full-moon-lot-4/,"Kakalove Cafe, Chia-Yi, Taiwan",23.4741204,120.4333647
113,https://www.coffeereview.com/review/ace-espresso-2/,"Propeller Coffee, Toronto, Ontario, Canada",43.6594069,-79.44491300000001
114,https://www.coffeereview.com/review/ace-espresso-3/,"Propeller Coffee, Toronto, Ontario, Canada",43.6594069,-79.44491300000001
115,https://www.coffeereview.com/review/ace-espresso-4/,"Propeller Coffee, Toronto, Ontario, Canada",43.6594069,-79.44491300000001
116,https://www.coffeereview.com/review/ace-espresso/,"Propeller Coffee, Toronto, Ontario, Canada",43.6594069,-79.44491300000001
117,https://www.coffeereview.com/review/aces-la-juntas/,"JBC Coffee Roasters, Madison, Wisconsin",43.051081,-89.2787255
118,https://www.coffeereview.com/review/adado-shara-ethiopia-washed/,"Lexington Coffee Roasters, Lexington, Virginia",37.785125,-79.44154999999999
119,https://www.coffeereview.com/review/adame-gorbota-espresso/,"JBC Coffee Roasters, Madison, Wisconsin",43.051081,-89.2787255
120,https://www.coffeereview.com/review/adame-gorbota-ethiopia/,"JBC Coffee Roasters, Madison, Wisconsin",43.051081,-89.2787255
121,https://www.coffeereview.com/review/adanech-ethiopia-guji/,"Steady State Roasting Company, Carlsbad, California",33.1646063,-117.3522321
122,https://www.coffeereview.com/review/addis-katema/,"JBC Coffee Roasters, Madison, Wisconsin",43.051081,-89.2787255
123,https://www.coffeereview.com/review/ademe-bedane-ethiopia-northern-italian-espresso-roast/,"Terroir Coffee, Acton, Massachusetts",42.4850931,-71.43284
124,https://www.coffeereview.com/review/aeknauli-sumatra/,"JBC Coffee Roasters, Madison, Wisconsin",43.051081,-89.2787255
125,https://www.coffeereview.com/review/africa-kitamu/,"Starbucks Coffee, Seattle, Washington",47.64975,-122.3499553
126,https://www.coffeereview.com/review/african-classic/,"O'Henry's Coffees, Homewood, Alabama",33.4717732,-86.80082279999999
127,https://www.coffeereview.com/review/african-dance-espresso-blend/,"Night & Bean Coffee, Hsinchu, Taiwan",24.8138287,120.9674798
128,https://www.coffeereview.com/review/african-kitamu/,"Starbucks Coffee, Seattle, Washington",47.64975,-122.3499553
129,https://www.coffeereview.com/review/african-romance-blend/,"Coffeebox Coffee, Taipei, Taiwan",25.0257955,121.5382542
130,https://www.coffeereview.com/review/african-summer-blend/,"Caffe Pronto Coffee Roastery, Annapolis, Maryland",38.976057,-76.51245899999999
131,https://www.coffeereview.com/review/aged-celebes/,"Moore Coffee, Ventura, California",34.2994818,-119.2981223
132,https://www.coffeereview.com/review/aged-pikos-peaberry/,"Doi Chaang Coffee, Calgary, Alberta, Canada",51.04473309999999,-114.0718831
133,https://www.coffeereview.com/review/aged-sumatra-2/,"Silver Canyon Coffee, Boulder, Colorado",40.0763967,-105.2782381
134,https://www.coffeereview.com/review/aged-sumatra-3/,"La Mill Coffee, Alhambra, California",34.0814576,-118.1549649
135,https://www.coffeereview.com/review/aged-sumatra-4/,"Peet's Coffee & Tea, Berkeley, California",37.8311524,-122.2871268
136,https://www.coffeereview.com/review/aged-sumatra-espresso/,"Telluride Coffee Roasters, Telluride, Colorado",37.9463357,-107.8766606
137,https://www.coffeereview.com/review/aged-sumatra-lintong-vintage-2004/,"Paradise Roasters, Ramsey, Minnesota",45.2611,-93.45
138,https://www.coffeereview.com/review/aged-sumatra-mandh-pawani-2/,"Armeno Coffee, Northborough, Massachusetts",42.2921965,-71.6579805
139,https://www.coffeereview.com/review/aged-sumatra-mandh-pawani/,"Armeno Coffee, Northborough, Massachusetts",42.2921965,-71.6579805
140,https://www.coffeereview.com/review/aged-sumatra-mandheling/,"Alpen Sierra Coffee, South Lake Tahoe, California",38.939926,-119.9771868
141,https://www.coffeereview.com/review/aged-sumatra-semiga/,"Paradise Roasters, Minneapolis, Minnesota",44.977753,-93.2650108
142,https://www.coffeereview.com/review/aged-sumatra-ulos-batak-2015/,"Paradise Roasters, Minneapolis, Minnesota",44.977753,-93.2650108
143,https://www.coffeereview.com/review/aged-sumatra-ulos-batak-peaberry/,"Equator Coffees & Teas, San Rafael, California",37.9654242,-122.5230484
144,https://www.coffeereview.com/review/aged-sumatra/,"Allegro Coffee Roasters, Boulder, Colorado",40.0189728,-105.2747406
145,https://www.coffeereview.com/review/aipep-bolivian-fair-trade-espresso/,"Just Coffee Cooperative, Madison, Wisconsin",43.1226612,-89.3243478
146,https://www.coffeereview.com/review/akita-espresso-blend/,"Buon Caffe, Taipei, Taiwan",25.0055574,121.4902343
147,https://www.coffeereview.com/review/alaka-ethiopia/,"JBC Coffee Roasters, Madison, Wisconsin",43.051081,-89.2787255
148,https://www.coffeereview.com/review/alamendah-patuha-coffee/,"Mother Pigeons, Jakarta, Indonesia",-6.1944491,106.8229198
149,https://www.coffeereview.com/review/alamid-coffee-kopi-luwak/,"Faustino Coffee, Ontario, California",34.0645932,-117.6483422
150,https://www.coffeereview.com/review/alans-blend/,"Polly's Gourmet Coffee, Long Beach, California",33.8189853,-118.1455766
151,https://www.coffeereview.com/review/alemu-bukato-espresso/,"JBC Coffee Roasters, Madison, Wisconsin",43.051081,-89.2787255
152,https://www.coffeereview.com/review/alemu-bukato-ethiopia/,"JBC Coffee Roasters, Madison, Wisconsin",43.051081,-89.2787255
153,https://www.coffeereview.com/review/alemu-kochere-yirgacheffe/,"Bird Rock Coffee Roasters, La Jolla, California",32.8790308,-117.2325748
154,https://www.coffeereview.com/review/alishan-natural/,"Grass Coffee Roaster, Yilan, Taiwan",24.7021073,121.7377502
155,https://www.coffeereview.com/review/alishan-taiwan/,"Le Brewlife, Taichung, Taiwan",24.1629765,120.6746104
156,https://www.coffeereview.com/review/alishan-washed/,"Grass Coffee Roaster, Yilan, Taiwan",24.7021073,121.7377502
157,https://www.coffeereview.com/review/all-rise/,"RND & Red Rooster Coffee Roaster, Roanoke, Virginia and Floyd, Virginia",37.2709116,-79.94494949999999
158,https://www.coffeereview.com/review/alma-estate-panama-natural/,"Dragonfly Coffee Roasters, Boulder, Colorado",40.0189728,-105.2747406
159,https://www.coffeereview.com/review/alma-vieja-10-year-anniversary-blend/,"Old Soul Co., Sacramento, California",38.5749635,-121.4842875
160,https://www.coffeereview.com/review/alto-lagunillas-by-wilson-sucaticona/,"JBC Coffee Roasters, Madison, Wisconsin",43.051081,-89.2787255
161,https://www.coffeereview.com/review/amalfi-dark-roast/,"Amante Coffee, Roasted in Italy; distributed from Louisville, Colorado",41.87194,12.56738
162,https://www.coffeereview.com/review/amaro-gayo-natural-ethiopia/,"Chocolate Fish Coffee Roasters, Sacramento, California",38.5514713,-121.4889612
163,https://www.coffeereview.com/review/amasia-blend/,"Toca Coffee, Pompton Plains, New Jersey",40.956746,-74.289362
164,https://www.coffeereview.com/review/amazon-haze/,"421 Brew House, Calgary, Alberta, Canada",51.04473309999999,-114.0718831
165,https://www.coffeereview.com/review/amber-forest-espresso-blend/,"Buon Caffe, Taipei, Taiwan",25.0055574,121.4902343
166,https://www.coffeereview.com/review/ambergris-espresso-blend/,"DoubleShot Coffee, Tulsa, Oklahoma",36.13853539999999,-95.9883249
167,https://www.coffeereview.com/review/ambrosia-espresso/,"Caffe Fresco, Pittston, Pennsylvania",41.3259134,-75.78936039999999
168,https://www.coffeereview.com/review/americano-blend-espresso/,"Nongfu Spring Co., Ltd., Hangzhou, China",30.276756,120.133737
169,https://www.coffeereview.com/review/amiable-espresso-blend/,"Mellow Coffee, New Taipei, Taiwan",25.0238746,121.4740009
170,https://www.coffeereview.com/review/amor/,"Amor, Bangkok, Thailand",13.7563309,100.5017651
171,https://www.coffeereview.com/review/amys-blend-2/,"Caribou Coffee, Minneapolis, Minnesota",44.977753,-93.2650108
172,https://www.coffeereview.com/review/amys-blend/,"Caribou Coffee, Minneapolis, Minnesota",44.977753,-93.2650108
173,https://www.coffeereview.com/review/anastasios-blend/,"El Tucan Honduras Estate Coffee, Stuart, Virginia",36.6363992,-80.26939630000001
174,https://www.coffeereview.com/review/andi-sumatra-2/,"JBC Coffee Roasters, Madison, Wisconsin",43.051081,-89.2787255
175,https://www.coffeereview.com/review/andi-sumatra/,"JBC Coffee Roasters, Madison, Wisconsin",43.051081,-89.2787255
176,https://www.coffeereview.com/review/angamaza/,"JBC Coffee Roasters, Madison, Wisconsin",43.051081,-89.2787255
177,https://www.coffeereview.com/review/anniversary-blend-2/,"Temple Coffee, Sacramento, California",38.5798523,-121.4938156
178,https://www.coffeereview.com/review/anniversary-blend-3/,"Caffe Luxxe, Santa Monica, California",34.0472739,-118.490435
179,https://www.coffeereview.com/review/anniversary-blend/,"Barefoot Coffee Roasters, Santa Clara, California",37.3657624,-121.9410338
180,https://www.coffeereview.com/review/antigua-bella-carmona-99/,"Oren's Daily Roast, New York, New York",40.7127753,-74.0059728
181,https://www.coffeereview.com/review/aoyama-espresso-house-blend/,"Cafe Fugu Roasters, Taipei City, Taiwan",25.028223,121.5643633
182,https://www.coffeereview.com/review/apex-blend/,"Torque Coffee, Vancouver, Washington",45.6250736,-122.6734862
183,https://www.coffeereview.com/review/apollo/,"Counter Culture Coffee, Durham, North Carolina",35.996619,-78.88829369999999
184,https://www.coffeereview.com/review/aponte-colombia/,"Lexington Coffee Roasters, Lexington, Virginia",37.785125,-79.44154999999999
185,https://www.coffeereview.com/review/appassionato-decaf/,"Caffe Appassionato, Seattle, Washington",47.632052,-122.3570207
186,https://www.coffeereview.com/review/arabian-mocha-java-2/,"Starbucks Coffee, Seattle, Washington",47.64975,-122.3499553
187,https://www.coffeereview.com/review/arabian-mocha-java-3/,"Equator Estate Coffees & Teas, San Rafael, California",37.9735346,-122.5310874
188,https://www.coffeereview.com/review/arabian-mocha-java-dark-roast/,"Peet's Coffee, Berkeley, California",37.8715226,-122.273042
189,https://www.coffeereview.com/review/arabian-mocha-java/,"Starbucks Coffee, Seattle, Washington",47.64975,-122.3499553
190,https://www.coffeereview.com/review/arabica-excellence/,"Smit & Dorlas, Mijdrecht, The Netherlands",52.20542409999999,4.8717982
191,https://www.coffeereview.com/review/arabica-express-guatemala-antigua/,"Podhead, Narragansett, Rhode Island",41.4500844,-71.44950299999999
192,https://www.coffeereview.com/review/arabica-express-kenya-aa-2/,"Podhead, Narragansett, Rhode Island",41.4500844,-71.44950299999999
193,https://www.coffeereview.com/review/arabica-express-kenya-aa/,"Podhead, Narragansett, Rhode Island",41.4500844,-71.44950299999999
194,https://www.coffeereview.com/review/arabica-express-organic-colombian/,"Podhead, Narragansett, Rhode Island",41.4500844,-71.44950299999999
195,https://www.coffeereview.com/review/arabica-express-sensation-brasil-santos/,"Podhead, Narragansett, Rhode Island",41.4500844,-71.44950299999999
196,https://www.coffeereview.com/review/arabica-wild-kopi-luwak/,"The Bantuan Coffee Foundation, Utrecht, Netherlands",52.09192549999999,5.1229572
197,https://www.coffeereview.com/review/aramo-grade-1-ethiopia-yirgacheffe-natural/,"Blueprint Coffee, St. Louis, Missouri",38.6557311,-90.3005719
198,https://www.coffeereview.com/review/arbor-day-blend-decaffeinated/,"Arbor Day Specialty Coffee, Lincoln, Nebraska",40.815136,-96.70433949999999
199,https://www.coffeereview.com/review/arbor-day-blend/,"Arbor Day Specialty Coffee, Lincoln, Nebraska",40.815136,-96.70433949999999
200,https://www.coffeereview.com/review/ardent-espresso-blend/,"Mellow Coffee, New Taipei, Taiwan",25.0238746,121.4740009
201,https://www.coffeereview.com/review/ardent-ethiopia-natural/,"JBC Coffee Roasters, Madison, Wisconsin",43.051081,-89.2787255
202,https://www.coffeereview.com/review/ardi-ethiopia-natural/,"Topeca Coffee Roasters, Tulsa, Oklahoma",36.1598912,-95.9759772
203,https://www.coffeereview.com/review/area-code-207/,"Coffee Hound, Brewer, Maine",44.7851034,-68.7674243
204,https://www.coffeereview.com/review/arena-selection-one-yirgacheffe-ethiopia/,"Novo Coffee, Denver, Colorado",39.7624187,-104.979821
205,https://www.coffeereview.com/review/ari-ari-seuri-seuri/,"Noelia Coffee, Paju City (Gyeonggi-do), South Korea",37.7595855,126.7777674
206,https://www.coffeereview.com/review/aria-blend-blonde-roast-k-cup/,"Starbucks, Seattle, Washington",47.6061389,-122.3328481
207,https://www.coffeereview.com/review/aricha-ethiopia-yirgacheffe-natural-process/,"JBC Coffee Roasters, Madison, Wisconsin",43.051081,-89.2787255
208,https://www.coffeereview.com/review/aricha-selection-11-yirgacheffe-ethiopia/,"Novo Coffee, Denver, Colorado",39.7624187,-104.979821
209,https://www.coffeereview.com/review/aricha-selection-seven-ethiopia-yirgacheffe/,"Novo Coffee, Denver, Colorado",39.7624187,-104.979821
210,https://www.coffeereview.com/review/aricha-yirgacheffe-ethiopia/,"Barrington Coffee Roasting Co., Lee, Massachusetts",42.28408810000001,-73.2572708
211,https://www.coffeereview.com/review/arnulfo-leguizamo-colombia/,"Fratello Coffee Roasters, Calgary, Alberta, Canada",51.0192412,-114.0410502
212,https://www.coffeereview.com/review/aroma-19-blend-coffee-beans/,"Seeker Co, Ltd., Taipei, Taiwan",25.0329694,121.5654177
213,https://www.coffeereview.com/review/aroma-coffee/,"Aroma Coffee Roasters, Hoboken, New Jersey",40.726109,-73.998722
214,https://www.coffeereview.com/review/aroma-de-canalaj-guatemala/,"Green Mountain Coffee, Waterbury, Vermont",44.3350974,-72.75185479999999
215,https://www.coffeereview.com/review/arpessio-espresso-capsule-purple/,"Nespresso, Paudex, Switzerland",46.5063515,6.670637500000001
216,https://www.coffeereview.com/review/artemis-true-coffee-blend/,"True Coffee Roasting Studio, Taipei County, Taiwan",25.0131812,121.4748517
217,https://www.coffeereview.com/review/ascension/,"Neosoul, Raleigh, North Carolina",35.7795897,-78.6381787
218,https://www.coffeereview.com/review/asfaw-maru-ethiopia-natural-cold-brew/,"Collage Coffee, Grove City, Pennsylvania",41.1590213,-80.0868792
219,https://www.coffeereview.com/review/asobombo-colombia-2/,"JBC Coffee Roasters, Madison, Wisconsin",43.051081,-89.2787255
220,https://www.coffeereview.com/review/asobombo-colombia/,"JBC Coffee Roasters, Madison, Wisconsin",43.051081,-89.2787255
221,https://www.coffeereview.com/review/asopap-colombia/,"JBC Coffee Roasters, Madison, Wisconsin",43.051081,-89.2787255
222,https://www.coffeereview.com/review/asopcafa-colombia-2/,"JBC Coffee Roasters, Madison, Wisconsin",43.051081,-89.2787255
223,https://www.coffeereview.com/review/asopcafa-colombia/,"JBC Coffee Roasters, Madison, Wisconsin",43.051081,-89.2787255
224,https://www.coffeereview.com/review/asopcafa-espresso/,"JBC Coffee Roasters, Madison, Wisconsin",43.051081,-89.2787255
225,https://www.coffeereview.com/review/asopep-colombia/,"JBC Coffee Roasters, Madison, Wisconsin",43.051081,-89.2787255
226,https://www.coffeereview.com/review/asprole-blend-1-colombia-coffee-for-peace/,"True Coffee Roasters, Fitchburg, Wisconsin",43.0185843,-89.47285409999999
227,https://www.coffeereview.com/review/astro-cafe/,"Astro Cafe, Sterling, Virginia",39.0066993,-77.4291298
228,https://www.coffeereview.com/review/atom-blend/,"Atom Coffee Roasters, Douliou City, Taiwan",23.7064789,120.5397258
229,https://www.coffeereview.com/review/attaboy-blend/,"Cupping Room, Hong Kong, China",22.3193039,114.1693611
230,https://www.coffeereview.com/review/augies-ethiopia-layo-teraga-natural-instant-coffee/,"Voila Coffee, Bend, Oregon",44.07897699999999,-121.3052891
231,https://www.coffeereview.com/review/augies-ethiopia-layo-teraga-washed-instant-coffee/,"Voila Coffee, Bend, Oregon",44.07897699999999,-121.3052891
232,https://www.coffeereview.com/review/auromar-camilina-geisha/,"PT's Coffee Roasting Co., Topeka, Kansas",38.9475122,-95.693775
233,https://www.coffeereview.com/review/auromar-geisha-natural-2/,"Willoughby's Coffee & Tea, Branford, Connecticut",41.2993747,-72.7667601
234,https://www.coffeereview.com/review/auromar-geisha-natural/,"Willoughby's Coffee & Tea, Branford, Connecticut",41.2993747,-72.7667601
235,https://www.coffeereview.com/review/auromar-gesha-natural/,"PT's Coffee Roasting, Topeka, Kansas",38.9475122,-95.693775
236,https://www.coffeereview.com/review/aurora-espresso-blend/,"Mellow Coffee, New Taipei, Taiwan",25.0238746,121.4740009
237,https://www.coffeereview.com/review/australia-xf-2007-bundja-single-origin-espresso/,"PT's Coffee Roasting Co., Topeka, Kansas",38.9475122,-95.693775
238,https://www.coffeereview.com/review/australian-blend-espresso/,"Greybox Coffee, Shanghai, China",31.22052,121.47825
239,https://www.coffeereview.com/review/autumn-forest/,"Hutu Cafe Roastery, Taipei, Taiwan",25.0550768,121.5235709
240,https://www.coffeereview.com/review/autumn-harvest-blend-organic-fair-trade/,"Green Mountain Coffee, Waterbury, Vermont",44.3350974,-72.75185479999999
241,https://www.coffeereview.com/review/autumn-harvest-blend/,"Green Mountain Coffee, Waterbury, Vermont",44.3350974,-72.75185479999999
242,https://www.coffeereview.com/review/ayla-bombe-natural/,"JBC Coffee Roasters, Madison, Wisconsin",43.051081,-89.2787255
243,https://www.coffeereview.com/review/aztec-chocolate/,"Passion Cafe, Los Angeles, California",34.0186748,-118.2843369
244,https://www.coffeereview.com/review/aztec-harvest-breakfast-blend-2/,"Thanksgiving Coffee, Fort Bragg, California",39.4210165,-123.8034653
245,https://www.coffeereview.com/review/aztec-harvest-breakfast-blend/,"Thanksgiving Coffee, Fort Bragg, California",39.4210165,-123.8034653
246,https://www.coffeereview.com/review/b-people-blend/,"Rhetoric Coffee, Berkeley, California",37.8715226,-122.273042
247,https://www.coffeereview.com/review/baby-dragons/,"Nostalgia Coffee Roasters, San Diego, California",32.914887,-117.2283981
248,https://www.coffeereview.com/review/backwoods-espresso/,"RamsHead Coffee Roasters, Bozeman, Montana",45.6702915,-111.135432
249,https://www.coffeereview.com/review/bahama-breeze-blend/,"S&D Coffee for Bahama Breeze Restaurants, Concord, North Carolina",35.39643,-80.614548
250,https://www.coffeereview.com/review/bait-alal-community/,"Qima Coffee, London, England",51.523978,-0.1399175
251,https://www.coffeereview.com/review/bajawa-flores-indonesia/,"Cafe Virtuoso, San Diego, California",32.7038557,-117.1494428
252,https://www.coffeereview.com/review/balance-blend/,"Fabbrica Coffee, Kosice, Slovakia",48.7149186,21.2383569
253,https://www.coffeereview.com/review/bale-mountain-natural-ethiopia/,"JBC Coffee Roasters, Madison, Wisconsin",43.051081,-89.2787255
254,https://www.coffeereview.com/review/balearic-beans/,"modcup coffee, Jersey City, New Jersey",40.745012,-74.0438276
255,https://www.coffeereview.com/review/bali-blue-moon/,"La Bean Coffee, Summitville, New York",41.6214825,-74.4507126
256,https://www.coffeereview.com/review/bali-kinamani-subak-abians-organic/,"Portola Handcrafted Coffee Roasters, Irvine, California",33.6722043,-117.7130445
257,https://www.coffeereview.com/review/bali-kintamani-2/,"Magnolia Coffee, Charlotte, North Carolina",35.1311107,-80.7276487
258,https://www.coffeereview.com/review/bali-kintamani-3/,"Beverage Experts, New Taipei City, Taiwan",25.0169826,121.4627868
259,https://www.coffeereview.com/review/bali-kintamani-4/,"Succulent Coffee Roasters, Newport Beach, California",33.5439286,-117.7845323
260,https://www.coffeereview.com/review/bali-kintamani-5/,"Bassline Coffee, Oakland, California",37.8168551,-122.2902876
261,https://www.coffeereview.com/review/bali-kintamani-6/,"City Boy Coffee, Long Island City, New York",40.7127753,-74.0059728
262,https://www.coffeereview.com/review/bali-kintamani-highlands/,"Seattle Coffee Works, Seattle, Washington",47.61016679999999,-122.3406123
263,https://www.coffeereview.com/review/bali-kintamani-organic-natural-process/,"Bard Coffee, Portland, Maine",43.6576744,-70.2552393
264,https://www.coffeereview.com/review/bali-kintamani-organic-rainforest-alliance/,"Lexington Coffee Roasters, Lexington, Virginia",37.785125,-79.44154999999999
265,https://www.coffeereview.com/review/bali-kintamani/,"Lexington Coffee Roasters, Lexington, Virginia",37.785125,-79.44154999999999
266,https://www.coffeereview.com/review/bali-natural-kintamani-organic/,"Bard Coffee, Portland, Maine",43.6576744,-70.2552393
267,https://www.coffeereview.com/review/bali-paradise-valley/,"Morghan Rake Coffee, Greencastle, Pennsylvania",39.790371,-77.7277714
268,https://www.coffeereview.com/review/bali-yeast-honey-edi-kadek-lot/,"Kopi Ibrik, Taipei, Taiwan",25.0363402,121.547275
269,https://www.coffeereview.com/review/bali/,"XF Coffee, Anoka, Minnesota",45.1977428,-93.3871758
270,https://www.coffeereview.com/review/ballista-espresso/,"Barrington Coffee Roasting Co., Lee, Massachusetts",42.28408810000001,-73.2572708
271,https://www.coffeereview.com/review/baloo-espresso/,"Thirty-Thirty Coffee Co., Peoria, Illinois",40.6967517,-89.59436319999999
272,https://www.coffeereview.com/review/banco-gotete-ethiopia/,"JBC Coffee Roasters, Madison, Wisconsin",43.051081,-89.2787255
273,https://www.coffeereview.com/review/banko-gotete-ethiopia/,"JBC Coffee Roasters, Madison, Wisconsin",43.051081,-89.2787255
274,https://www.coffeereview.com/review/banko-gotiti-ethiopia/,"JBC Coffee Roasters, Madison, Wisconsin",43.051081,-89.2787255
275,https://www.coffeereview.com/review/banko-gotiti-natural/,"JBC Coffee Roasters, Madison, Wisconsin",43.051081,-89.2787255
276,https://www.coffeereview.com/review/banti-nenga-hambela-wamena/,"Drink Coffee Do Stuff, Truckee, California",39.3271065,-120.1868698
277,https://www.coffeereview.com/review/bantu-blend/,"Diedrich Coffee, Irvine, California",33.6718131,-117.8458672
278,https://www.coffeereview.com/review/bard-2-2-espresso/,"Bard Coffee, Portland, Maine",43.6576744,-70.2552393
279,https://www.coffeereview.com/review/bard-2-2/,"Bard Coffee, Portland, Maine",43.6576744,-70.2552393
280,https://www.coffeereview.com/review/barichu-double/,"Barrington Coffee Roasting, Lee, Massachusetts",42.28408810000001,-73.2572708
281,https://www.coffeereview.com/review/baridi-black-cold-brew/,"Peet's Coffee & Tea, Berkeley, California",37.8311524,-122.2871268
282,https://www.coffeereview.com/review/barista-blend-11/,"Soyuz Coffee Roasting, Kaliningrad, Russia",54.7104264,20.4522144
283,https://www.coffeereview.com/review/barista-blend-4/,"Soyuz Coffee Roasting, Kaliningrad, Russia",54.7104264,20.4522144
284,https://www.coffeereview.com/review/barista-blend-7/,"Soyuz Coffee Roasting, Kaliningrad, Russia",54.7104264,20.4522144
285,https://www.coffeereview.com/review/barista-brava-sumatra/,"Quartermaine Coffee Roasters (Sam's Club), Rockville, Maryland",39.0451309,-77.0996849
286,https://www.coffeereview.com/review/barista-prima-coffeehouse-colombia-k-cup-2/,"Green Mountain Coffee, Waterbury, Vermont",44.3350974,-72.75185479999999
287,https://www.coffeereview.com/review/barista-prima-coffeehouse-colombia-k-cup/,"Green Mountain Coffee, Waterbury, Vermont",44.3350974,-72.75185479999999
288,https://www.coffeereview.com/review/barista-prima-coffeehouse-house-blend-k-cup/,"Green Mountain Coffee, Waterbury, Vermont",44.3350974,-72.75185479999999
289,https://www.coffeereview.com/review/barokah-honey-sumatra/,"JBC Coffee Roasters, Madison, Wisconsin",43.051081,-89.2787255
290,https://www.coffeereview.com/review/barrel-aged-coffee/,"Reprise Coffee Roasters, Lake Forest, Illinois",42.2237338,-87.8749687
291,https://www.coffeereview.com/review/barrel-aged-natural-guji/,"Regent Coffee, Glendale, California",34.14976920000001,-118.2552571
292,https://www.coffeereview.com/review/barrel-proof/,"Revel Coffee, Billings, Montana",45.7432555,-108.5995914
293,https://www.coffeereview.com/review/baru-gesha/,"Bar Nine, Los Angeles, California",33.9905387,-118.4436622
294,https://www.coffeereview.com/review/bat-country-dark-roast-ethiopia/,"Sightseer Coffee, Austin, Texas",30.2461208,-97.7564702
295,https://www.coffeereview.com/review/batak-nauli-sumatra/,"Topeca Coffee Roasters, Tulsa, Oklahoma",36.1598912,-95.9759772
296,https://www.coffeereview.com/review/batak-nuali-sumatra/,"PT's Coffee Roasting Co., Topeka, Kansas",38.9475122,-95.693775
297,https://www.coffeereview.com/review/batista-natural-geisha/,"Gavagai, Kaohsiung City, Taiwan",22.6272784,120.3014353
298,https://www.coffeereview.com/review/bayou-buzz-breakfast-blend/,"Poppets Coffee, Dayton, Ohio",39.7473739,-84.12967119999999
299,https://www.coffeereview.com/review/bayview-farms-kona-extra-fancy/,"Armeno Coffee, Northborough, Massachusetts",42.2921965,-71.6579805
300,https://www.coffeereview.com/review/bc-espresso/,"Big Creek Coffee Roasters, Hamilton, Montana",46.2467469,-114.1588122
301,https://www.coffeereview.com/review/beach-buzz-espresso/,"Paradise Roasters, Ramsey, Minnesota",45.2611,-93.45
302,https://www.coffeereview.com/review/beachcomber-blend/,"Beachcomber Coffee, Vancouver, British Columbia, Canada",49.2827291,-123.1207375
303,https://www.coffeereview.com/review/beagle-espresso-blend/,"Buon Caffe, Taipei, Taiwan",25.0055574,121.4902343
304,https://www.coffeereview.com/review/bean-brain-reserve-perla-negra-costa-rica/,"Cafe Virtuoso, San Diego, California",32.7038557,-117.1494428
305,https://www.coffeereview.com/review/bean-brain-reserve-suke-quto-ethiopia-sidamo-espresso/,"Cafe Virtuoso, San Diego, California",32.7038557,-117.1494428
306,https://www.coffeereview.com/review/bean-brain-reserve-suke-quto-ethiopia-sidamo/,"Cafe Virtuoso, San Diego, California",32.7038557,-117.1494428
307,https://www.coffeereview.com/review/bean-series-ethiopia-guji-raro/,"St1 Cafe/Work Room, Tainan City, Taiwan",22.9998999,120.2268758
308,https://www.coffeereview.com/review/beanery-blend/,"The Coffee Beanery, Flushing, Michigan",43.0575139,-83.7841517
309,https://www.coffeereview.com/review/beaverslide-rwanda-ethiopia-blend/,"Philipsburg Coffee Roasters, Philipsburg, Montana",46.3334811,-113.3109524
310,https://www.coffeereview.com/review/bedhatu-jibicho-natural/,"JBC Coffee Roasters, Madison, Wisconsin",43.051081,-89.2787255
311,https://www.coffeereview.com/review/beemers-papua-new-guinea/,"Island Joe's Gourmet Coffee, Key West, Florida",24.5591682,-81.80484109999999
312,https://www.coffeereview.com/review/beethovens-viennese-blend/,"Santa Cruz Coffee Company, Watsonville, California",36.910231,-121.7568946
313,https://www.coffeereview.com/review/bekele-heto-natural-ethiopia/,"JBC Coffee Roasters, Madison, Wisconsin",43.051081,-89.2787255
314,https://www.coffeereview.com/review/belekatu-ethiopia-yirgacheffe/,"JBC Coffee Roasters, Madison, Wisconsin",43.051081,-89.2787255
315,https://www.coffeereview.com/review/bella-carmona-guatemala-2/,"JBC Coffee Roasters, Madison, Wisconsin",43.051081,-89.2787255
316,https://www.coffeereview.com/review/bella-carmona-guatemala-3/,"JBC Coffee Roasters, Madison, Wisconsin",43.051081,-89.2787255
317,https://www.coffeereview.com/review/bella-carmona-guatemala-4/,"JBC Coffee Roasters, Madison, Wisconsin",43.051081,-89.2787255
318,https://www.coffeereview.com/review/bella-carmona-guatemala-5/,"JBC Coffee Roasters, Madison, Wisconsin",43.051081,-89.2787255
319,https://www.coffeereview.com/review/bella-carmona-guatemala-6/,"JBC Coffee Roasters, Madison, Wisconsin",43.051081,-89.2787255
320,https://www.coffeereview.com/review/bella-carmona-guatemala-7/,"JBC Coffee Roasters, Madison, Wisconsin",43.051081,-89.2787255
321,https://www.coffeereview.com/review/bella-carmona-guatemala/,"JBC Coffee Roasters, Madison, Wisconsin",43.051081,-89.2787255
322,https://www.coffeereview.com/review/bella-vista-tres-rios/,"Starbucks Coffee, Seattle, Washington",47.64975,-122.3499553
323,https://www.coffeereview.com/review/belle-espresso/,"Klatch Coffee, San Dimas, California",34.1061591,-117.8224627
324,https://www.coffeereview.com/review/belo-espresso/,"Ferroni Brothers, Doral, Florida",25.8216636,-80.3341312
325,https://www.coffeereview.com/review/belquis-ramirez-lemus-colombia-coffee-for-peace/,"True Coffee Roasters, Fitchburg, Wisconsin",43.0185843,-89.47285409999999
326,https://www.coffeereview.com/review/belt-line-blend/,"White Rhino Coffee, Dallas, Texas",32.7970162,-96.7969902
327,https://www.coffeereview.com/review/bener-meriah-sumatra/,"JBC Coffee Roasters, Madison, Wisconsin",43.051081,-89.2787255
328,https://www.coffeereview.com/review/benti-nenqa-209-ethiopia/,"JBC Coffee Roasters, Madison, Wisconsin",43.051081,-89.2787255
329,https://www.coffeereview.com/review/benti-nenqa-ethiopia/,"Intelligentsia Coffee, Chicago, Illinois",41.8781136,-87.6297982
330,https://www.coffeereview.com/review/berg-wu-championship-selection-yirgacheffe-g1-natural-lot-19-01/,"GK Coffee, Yilan, Taiwan, China",24.6730851,121.7475813
331,https://www.coffeereview.com/review/berg-wu-championship-sidamo-washed-g1-lot-20-02/,"Kakalove Cafe, Chia-Yi, Taiwan",23.4741204,120.4333647
332,https://www.coffeereview.com/review/berlina-geisha/,"Barrington Coffee Roasting, Lee, Massachusetts",42.28408810000001,-73.2572708
333,https://www.coffeereview.com/review/bernachon-arabica-mangkuraja-grade-1-espresso/,"Wei Chuan Foods Corporation, Taipei, Taiwan",25.0329694,121.5654177
334,https://www.coffeereview.com/review/bernachon-b-039-roasted-coffee-beans/,"Wei Chuan Foods Corporation, New Taipei City, Taiwan",25.0329694,121.5654177
335,https://www.coffeereview.com/review/bernachon-b-251-roasted-coffee-beans/,"Wei Chuan Foods Corporation, New Taipei City, Taiwan",25.0329694,121.5654177
336,https://www.coffeereview.com/review/bernachon-b-886-roasted-coffee-beans/,"Wei Chuan Foods Corporation, New Taipei City, Taiwan",25.0329694,121.5654177
337,https://www.coffeereview.com/review/bernachon-b123-espresso/,"Wei Chuan Foods Corporation, Taipei, Taiwan",25.0329694,121.5654177
338,https://www.coffeereview.com/review/bernachon-b888-espresso/,"Wei Chuan Foods Corporation, New Taipei City, Taiwan",25.0329694,121.5654177
339,https://www.coffeereview.com/review/bernachon-b945-espresso/,"Wei Chuan Foods Corporation, New Taipei City, Taiwan",25.0329694,121.5654177
340,https://www.coffeereview.com/review/bernachon-classic-espresso/,"Wei Chuan Foods Corporation, New Taipei City, Taiwan",25.0329694,121.5654177
341,https://www.coffeereview.com/review/bernachon-high-level-espresso/,"Wei Chuan Foods Corporation, New Taipei City, Taiwan",25.0329694,121.5654177
342,https://www.coffeereview.com/review/bernachon-m425-espresso/,"Wei Chuan Foods Corporation, Taipei, Taiwan",25.0329694,121.5654177
343,https://www.coffeereview.com/review/bernachon-mb-espresso/,"Wei Chuan Foods Corporation, New Taipei City, Taiwan",25.0329694,121.5654177
344,https://www.coffeereview.com/review/bernachon-n345-espresso/,"Wei Chuan Foods Corporation, New Taipei City, Taiwan",25.0329694,121.5654177
345,https://www.coffeereview.com/review/bernachon-panama-geisha/,"Wei Chuan Foods Corporation, Taipei, Taiwan",25.0329694,121.5654177
346,https://www.coffeereview.com/review/bernachon-zg-espresso/,"Wei Chuan Foods Corporation, New Taipei City, Taiwan",25.0329694,121.5654177
347,https://www.coffeereview.com/review/best-of-africa-blend-2/,"Cafe Moto, San Diego, California",32.69566289999999,-117.1377639
348,https://www.coffeereview.com/review/best-of-africa-blend/,"Pannikin Coffee & Tea, San Diego, California",32.7123343,-117.1585329
349,https://www.coffeereview.com/review/best-of-panama-3-elida-estate/,"Klatch Coffee, San Dimas, California",34.1061591,-117.8224627
350,https://www.coffeereview.com/review/best-of-panama-cafe-kotowa/,"Paradise Roasters, Anoka, Minnesota",45.1977428,-93.3871758
351,https://www.coffeereview.com/review/best-of-panama-gnep-01-elida-geisha-green-tip-natural/,"Willoughby's Coffee & Tea, Branford, Connecticut",41.2993747,-72.7667601
352,https://www.coffeereview.com/review/beta-blend/,"Blue Bottle Coffee, Oakland, California",37.8043514,-122.2711639
353,https://www.coffeereview.com/review/between-roast/,"Community Coffee, Baton Rouge, Louisiana",30.4192835,-91.0825349
354,https://www.coffeereview.com/review/big-easy-coffee-with-chicory/,"Orleans Coffee Exchange, Kenner, Louisiana",29.9873947,-90.2780654
355,https://www.coffeereview.com/review/big-mouth-frog-blend/,"Coffeebox Coffee, Taipei, Taiwan",25.0257955,121.5382542
356,https://www.coffeereview.com/review/big-papua-espresso/,"Thirty-Thirty Coffee Co., Peoria, Illinois",40.6967517,-89.59436319999999
357,https://www.coffeereview.com/review/big-trouble/,"Counter Culture Coffee, Emeryville, California",37.8450385,-122.289646
358,https://www.coffeereview.com/review/big-truck-espresso/,"Olympia Coffee Roasting, Olympia, Washington",47.0236189,-122.8959624
359,https://www.coffeereview.com/review/big-truck-organic-brew-bag/,"Olympia Coffee, Olympia, Washington",47.0451842,-122.895355
360,https://www.coffeereview.com/review/big-truck/,"Olympia Coffee Roasting, Olympia, Washington",47.0236189,-122.8959624
361,https://www.coffeereview.com/review/billie-blend/,"Dou Zhai Coffee & Roastery, Taichung, Taiwan",24.1361962,120.6757501
362,https://www.coffeereview.com/review/biloya-selection-one-ethiopia-2/,"PT's Coffee Roasting Co., Topeka, Kansas",38.9475122,-95.693775
363,https://www.coffeereview.com/review/biloya-selection-one-ethiopia/,"PT's Coffee Roasting Co., Topeka, Kansas",38.9475122,-95.693775
364,https://www.coffeereview.com/review/biodynamic-washed-geisha/,"Gee Coffee Roasters, Guangzhou, China",22.537683,113.99285
365,https://www.coffeereview.com/review/birambo-village-dr-congo-2/,"JBC Coffee Roasters, Madison, Wisconsin",43.051081,-89.2787255
366,https://www.coffeereview.com/review/birambo-village-dr-congo-espresso/,"JBC Coffee Roasters, Madison, Wisconsin",43.051081,-89.2787255
367,https://www.coffeereview.com/review/birambo-village-dr-congo/,"JBC Coffee Roasters, Madison, Wisconsin",43.051081,-89.2787255
368,https://www.coffeereview.com/review/bird-dog/,"Matt's Wood-Roasted Organic Coffee, Pownal, Maine",43.9133191,-70.1803764
369,https://www.coffeereview.com/review/birhanu-sisters-ethiopia/,"Swelter Coffee, El Cerrito, California",37.9161326,-122.310765
370,https://www.coffeereview.com/review/biru-bekele-ethiopia/,"JBC Coffee Roasters, Madison, Wisconsin",43.051081,-89.2787255
371,https://www.coffeereview.com/review/bizzarri-blend/,"Caffé Umbria, Seattle, Washington",47.6061389,-122.3328481
372,https://www.coffeereview.com/review/black-apron-exclusive-kopi-kampung-sulawesi-2/,"Starbucks Coffee, Seattle, Washington",47.64975,-122.3499553
373,https://www.coffeereview.com/review/black-apron-exclusive-kopi-kampung-sulawesi/,"Starbucks Coffee, Seattle, Washington",47.64975,-122.3499553
374,https://www.coffeereview.com/review/black-apron-kirinyaga-kenya/,"Starbucks Coffee, Seattle, Washington",47.64975,-122.3499553
375,https://www.coffeereview.com/review/black-bar-espresso-1/,"Black Bar Cafe, Taipei City, Taiwan",25.0316461,121.5589383
376,https://www.coffeereview.com/review/black-bar-espresso-2/,"Black Bar Cafe, Taipei City, Taiwan",25.0316461,121.5589383
377,https://www.coffeereview.com/review/black-bar-espresso/,"Black Bar Cafe, Taipei City, Taiwan",25.0316461,121.5589383
378,https://www.coffeereview.com/review/black-basalt-dark-roast-blend-espresso/,"Paradise Roasters, Hilo, Hawaii",19.7238321,-155.0868244
379,https://www.coffeereview.com/review/black-cat-blend/,"Intelligentsia Coffee Roasters, Chicago, Illinois",41.888379,-87.636479
380,https://www.coffeereview.com/review/black-cat-espresso-2/,"Intelligentsia Coffee, Chicago, Illinois",41.8781136,-87.6297982
381,https://www.coffeereview.com/review/black-cat-espresso/,"Intelligentsia Coffee Roasters, Chicago, Illinois",41.888379,-87.636479
382,https://www.coffeereview.com/review/black-cold-brew/,"Big Shoulders Coffee, Chicago, Illinois",41.8781136,-87.6297982
383,https://www.coffeereview.com/review/black-dragon-dark-roast/,"Rhetoric Coffee, Berkeley, California",37.8715226,-122.273042
384,https://www.coffeereview.com/review/black-espresso/,"CMYK Coffee, Billings, Montana",45.7835365,-108.5008928
385,https://www.coffeereview.com/review/black-flag-espresso/,"Island Joe's Coffee, Key West, Florida",24.5591682,-81.80484109999999
386,https://www.coffeereview.com/review/black-geisha-blend-lab-18-espresso/,"HWC Coffee, Taichung, Taiwan",24.1629765,120.6746104
387,https://www.coffeereview.com/review/black-house-blend-cold-brew/,"Modern Times Coffee, San Diego, California",32.7119024,-117.156356
388,https://www.coffeereview.com/review/black-house/,"Modern Times, San Diego, California",32.7416345,-117.129938
389,https://www.coffeereview.com/review/black-level-blend/,"St1 Cafe/Work Room, Tainan City, Taiwan",22.9998999,120.2268758
390,https://www.coffeereview.com/review/black-magic-blend/,"Red Rock Roasters, Albuquerque, New Mexico",35.13554,-106.593871
391,https://www.coffeereview.com/review/black-mamba-ethiopian-harrar/,"Safari Cup, Chicago, Illinois",41.8824356,-87.7653785
392,https://www.coffeereview.com/review/black-meow-blend/,"Kakalove Cafe, Chia-Yi, Taiwan",23.4741204,120.4333647
393,https://www.coffeereview.com/review/black-peach-q-blend/,"Balmy Day Coffee Office, Taoyuan, Taiwan",24.9925185,121.305975
394,https://www.coffeereview.com/review/black-phantom-decaf-espresso/,"Atomic Cafe Coffee Roasters, Beverly, Massachusetts",42.5503233,-70.87813489999999
395,https://www.coffeereview.com/review/black-swan-blend/,"Kakalove Cafe, Chia-Yi, Taiwan",23.4741204,120.4333647
396,https://www.coffeereview.com/review/blade-runner-blend/,"Campos Coffee, Newtown, Sydney, Australia",-33.8930365,151.1831525
397,https://www.coffeereview.com/review/blend-espresso/,"Nongfu Spring Co., Ltd., Hangzhou, China",30.276756,120.133737
398,https://www.coffeereview.com/review/blend-k-cup/,"Green Mountain Coffee, Waterbury, Vermont",44.3350974,-72.75185479999999
399,https://www.coffeereview.com/review/blend-miracle/,"9 Bar Cafe, Gueishan Township, Taiwan",24.8423735,121.9501551
400,https://www.coffeereview.com/review/blend-no-7-berrichee/,"Quartet Kaffe, Taipei, Taiwan",25.0323183,121.4699314
401,https://www.coffeereview.com/review/blend-of-choisi/,"Cafe Choisi, Taipei, Taiwan",25.1229381,121.5115211
402,https://www.coffeereview.com/review/bliss-of-gayo-as-espresso/,"Simon Hsieh's Aroma Roast Coffees, Taoyuan, Taiwan, China",24.9936281,121.3009798
403,https://www.coffeereview.com/review/bliss-of-gayo/,"Simon Hsieh's Aroma Roast Coffees, Taoyuan, Taiwan, China",24.9936281,121.3009798
404,https://www.coffeereview.com/review/blooming-blend/,"4-Arts Zero Defects Coffees, Taiwan",23.69781,120.960515
405,https://www.coffeereview.com/review/blossom-blend-espresso/,"Regent Coffee, Glendale, California",34.14976920000001,-118.2552571
406,https://www.coffeereview.com/review/blossom-single-origin-espresso/,"Plat Coffee Roastery, Hong Kong, China",22.3193039,114.1693611
407,https://www.coffeereview.com/review/blossom-spring-blend/,"Hutu Cafe Roastery, Taipei, Taiwan",25.0550768,121.5235709
408,https://www.coffeereview.com/review/blue-de-brasil/,"A'Roma Roasters, Santa Rosa, California",38.4381047,-122.7214884
409,https://www.coffeereview.com/review/blue-label-la-esmeralda-porton-pascua-gesha/,"PT's Coffee Roasting, Topeka, Kansas",38.9475122,-95.693775
410,https://www.coffeereview.com/review/blue-mountain-flavor-blend/,"A.R.C., Hong Kong, China",22.3193039,114.1693611
411,https://www.coffeereview.com/review/blue-notes/,"Coffeeland, Chia-Yi, Taiwan",23.6242675,120.4676386
412,https://www.coffeereview.com/review/blue-ribbon-blend/,"Orleans Coffee Exchange, New Orleans, Louisiana",29.9873947,-90.2780654
413,https://www.coffeereview.com/review/blue-ridge-blend-2/,"Roadmap CoffeeWorks, Lexington, Virginia",37.8291587,-79.382938
414,https://www.coffeereview.com/review/blue-ridge-blend-3/,"Roadmap CoffeeWorks, Lexington, Virginia",37.8291587,-79.382938
415,https://www.coffeereview.com/review/blue-ridge-blend/,"Lexington Coffee Roasters, Lexington, Virginia",37.785125,-79.44154999999999
416,https://www.coffeereview.com/review/blue-sky-breakfast-blend-2/,"Paradise Roasters, Ramsey, Minnesota",45.2611,-93.45
417,https://www.coffeereview.com/review/blue-sky-breakfast-blend-3/,"Paradise Roasters, Minneapolis, Minnesota",44.977753,-93.2650108
418,https://www.coffeereview.com/review/blue-sky-breakfast-blend/,"Paradise Roasters, Ramsey, Minnesota",45.2611,-93.45
419,https://www.coffeereview.com/review/blue-special-blend/,"Bluekoff Company, Bangkok, Thailand",13.8114684,100.5702615
420,https://www.coffeereview.com/review/blue-sunda-estate-java/,"Peach Coffee Roasters, Johns Creek, Georgia",34.044203,-84.22432979999999
421,https://www.coffeereview.com/review/bluekoff-medium-roast-2/,"Bluekoff Company, Bangkok, Thailand",13.8114684,100.5702615
422,https://www.coffeereview.com/review/bluekoff-medium-roast/,"Bluekoff Company, Bangkok, Thailand",13.8114684,100.5702615
423,https://www.coffeereview.com/review/bluekoff-single-origin-thai-espresso-blend-a4a5-2/,"Bluekoff Company, Bangkok, Thailand",13.8114684,100.5702615
424,https://www.coffeereview.com/review/bluekoff-single-origin-thai-espresso-blend-a4a5/,"Bluekoff Company, Bangkok, Thailand",13.8114684,100.5702615
425,https://www.coffeereview.com/review/blue/,"CMYK Coffee, Billings, Montana",45.7835365,-108.5008928
426,https://www.coffeereview.com/review/bnt-espresso-blend-2/,"Desolate Cafe, Nantou, Taiwan",23.9177236,120.6764959
427,https://www.coffeereview.com/review/bnt-espresso-blend/,"Desolate Cafe, Nantou, Taiwan",23.9177236,120.6764959
428,https://www.coffeereview.com/review/boa-vista-brazil/,"Black Oak Coffee Roasters, Ukiah, California",39.1530644,-123.2084694
429,https://www.coffeereview.com/review/body-flavor-espresso/,"Yes Bean Fresh Roast Café, Taipei City, Taiwan",25.0329636,121.5654268
430,https://www.coffeereview.com/review/bohemian-blend/,"Batdorf & Bronson, Olympia, Washington",47.0734121,-122.9764714
431,https://www.coffeereview.com/review/boka-papua-new-guinea/,"Counter Culture Coffee, Durham, North Carolina",35.996619,-78.88829369999999
432,https://www.coffeereview.com/review/bold-cold-brewed-coffee/,"Blue Bottle Coffee, Oakland, California",37.8043514,-122.2711639
433,https://www.coffeereview.com/review/bolivia-agrotakesi-peaberry/,"Fratello Coffee Roasters, Calgary, Alberta, Canada",51.0192412,-114.0410502
434,https://www.coffeereview.com/review/bolivia-apolo-latin-america-microlot/,"Cafe Kreyol, Manassas, Virginia",38.7806628,-77.5588116
435,https://www.coffeereview.com/review/bolivia-buenavista-colonia-villa-rosario/,"Flight Coffee Co., Bedford, New Hampshire",42.9387628,-71.5257706
436,https://www.coffeereview.com/review/bolivia-caarnavi-buenavista-organic-light-roast/,"Marcheur Roaster, Taipei City, Taiwan",25.0329636,121.5654268
437,https://www.coffeereview.com/review/bolivia-cafe-alan-coe/,"49th Parallel Coffee Roasters, Burnaby, British Colombia, Canada",49.24971050000001,-122.9167503
438,https://www.coffeereview.com/review/bolivia-calama-marka-cup-of-excellence-prize-winner/,"Paradise Roasters, Anoka, Minnesota",45.1977428,-93.3871758
439,https://www.coffeereview.com/review/bolivia-canto-de-bolivar/,"Thanksgiving Coffee, Fort Bragg, California",39.4210165,-123.8034653
440,https://www.coffeereview.com/review/bolivia-caranavi-2/,"Cafe Virtuoso, San Diego, California",32.7038557,-117.1494428
441,https://www.coffeereview.com/review/bolivia-caranavi-cenaproc-co-op/,"Victrola Coffee Roasters, Seattle, Washington",47.6061389,-122.3328481
442,https://www.coffeereview.com/review/bolivia-caranavi/,"Moka Joe Coffee, Bellingham, Washington",48.7519112,-122.4786854
443,https://www.coffeereview.com/review/bolivia-carmelo-yujra-organic/,"Bird Rock Coffee Roasters, La Jolla, California",32.8790308,-117.2325748
444,https://www.coffeereview.com/review/bolivia-carmelo-yujra/,"Bird Rock Coffee Roasters, La Jolla, California",32.8790308,-117.2325748
445,https://www.coffeereview.com/review/bolivia-carrasco-pica-del-tucan/,"Counter Culture Coffee, Durham, North Carolina",35.996619,-78.88829369999999
446,https://www.coffeereview.com/review/bolivia-chicaloma-cup-of-excellence-2007-organic/,"Olympia Coffee Roasting, Olympia, Washington",47.0236189,-122.8959624
447,https://www.coffeereview.com/review/bolivia-chijchipani/,"Green Mountain Coffee, Waterbury, Vermont",44.3350974,-72.75185479999999
448,https://www.coffeereview.com/review/bolivia-copacabana/,"Kean Coffee, Newport Beach, California",33.6276558,-117.9084044
449,https://www.coffeereview.com/review/bolivia-cup-of-excellence-2007/,"Terroir Coffee, Acton, Massachusetts",42.4850931,-71.43284
450,https://www.coffeereview.com/review/bolivia-eusebio-marca/,"The Roasterie, Kansas City, Missouri",39.0997265,-94.5785667
451,https://www.coffeereview.com/review/bolivia-familia-miranda-2/,"Temple Coffee and Tea, Sacramento, California",38.5781342,-121.4944209
452,https://www.coffeereview.com/review/bolivia-familia-miranda/,"Cafe Grumpy, Brooklyn, New York",40.6652361,-73.9826702
453,https://www.coffeereview.com/review/bolivia-finca-alasitas-geisha-natural/,"Coffee Cycle Roasting, San Diego, California",32.7982689,-117.2394015
454,https://www.coffeereview.com/review/bolivia-finca-el-arcangel/,"Hidden Coffee HK, Hong Kong, China",22.3972798,113.9771135
455,https://www.coffeereview.com/review/bolivia-finca-la-linda-honey-java/,"Intelligentsia Coffee, Chicago, Illinois",41.8781136,-87.6297982
456,https://www.coffeereview.com/review/bolivia-finca-las-tacanas/,"Apasionado Coffee, Coroico, Bolivia.",-16.1941783,-67.7288125
457,https://www.coffeereview.com/review/bolivia-flor-rosa-coe-29/,"Barefoot Coffee Roasters, Santa Clara, California",37.3657624,-121.9410338
458,https://www.coffeereview.com/review/bolivia-illiimani/,"Water Avenue Coffee Company, Portland, Oregon",45.52207139999999,-122.681703
459,https://www.coffeereview.com/review/bolivia-manantial-gesha/,"Red Rooster Coffee Roaster, Floyd, Virginia",36.9164429,-80.3093313
460,https://www.coffeereview.com/review/bolivia-marcial-huanca/,"Bird Rock Coffee Roasters, La Jolla, California",32.8790308,-117.2325748
461,https://www.coffeereview.com/review/bolivia-mauricio-diez-medina-peaberry/,"Olympia Coffee Roasting, Olympia, Washington",47.0236189,-122.8959624
462,https://www.coffeereview.com/review/bolivia-organic-buenavista-1738/,"CafeTaster, I-Lan City, Taiwan",24.7591148,121.7537404
463,https://www.coffeereview.com/review/bolivia-organic-buenavista/,"Papa Lin's Coffee Roasting, Yorktown Heights, New York",41.2709274,-73.7776336
464,https://www.coffeereview.com/review/bolivia-organic-uchumachi/,"The WestBean Coffee Roasters, San Diego, California",32.715738,-117.1610838
465,https://www.coffeereview.com/review/bolivia-organic/,"Flying Goat Coffee, Healdsburg, California",38.6107679,-122.8692796
466,https://www.coffeereview.com/review/bolivia-san-lorenzo/,"Jackrabbit Java, Thermopolis, Wyoming",43.64637889999999,-108.2110449
467,https://www.coffeereview.com/review/bolivia-senda-salvaje-juan-yujra/,"PT's Coffee Roasting Co., Topeka, Kansas",38.9475122,-95.693775
468,https://www.coffeereview.com/review/bolivia-summit-roast/,"Trailhead Coffee Roasters, Portland, Oregon",45.509777,-122.6623
469,https://www.coffeereview.com/review/bolivia-taipiplaya-fair-trade-organic-certified/,"Grounds for Change, Poulsbo, Washington",47.7053287,-122.593807
470,https://www.coffeereview.com/review/bolivia-telmo-cahuana-peaberry/,"Cafe Valverde, West Newbury, Massachusetts",42.8014795,-70.989778
471,https://www.coffeereview.com/review/bolivia-tres-estrellas-organic/,"PT's Coffee Roasting Co., Topeka, Kansas",38.9475122,-95.693775
472,https://www.coffeereview.com/review/bolivia-yungas-caranavi-alasitas-geisha-natural/,"Sucré Beans, Taipei, Taiwan",25.0341147,121.535166
473,https://www.coffeereview.com/review/bolivia-yungas-caranavi-finca-las-alasitas-peaberry/,"Plat Coffee Roastery, Hong Kong, China",22.3193039,114.1693611
474,https://www.coffeereview.com/review/bolivian-caf-central/,"Fratello Coffee Roasters, Calgary, Alberta, Canada",51.0192412,-114.0410502
475,https://www.coffeereview.com/review/bolivian-cafe-central-coe/,"Fratello Coffee Roasters, Calgary, Alberta, Canada",51.0192412,-114.0410502
476,https://www.coffeereview.com/review/bollywood-espresso/,"Coffee Dusk Roasters, Daejeon, South Korea",36.3577577,127.3867458
477,https://www.coffeereview.com/review/bologna-blend-coffee-beans/,"Seeker Co, Ltd., Taipei, Taiwan",25.0329694,121.5654177
478,https://www.coffeereview.com/review/bombe-natural-sidama/,"Broadsheet Coffee, Cambridge, Massachusetts",42.3779491,-71.10729119999999
479,https://www.coffeereview.com/review/bonsai-blend-espresso/,"Velton's Coffee, Seattle, Washington",47.599331,-122.3345232
480,https://www.coffeereview.com/review/boquete-premium-green/,,,
481,https://www.coffeereview.com/review/boquete-region-panamanian-coffee/,"Thanksgiving Coffee, Fort Bragg, California",39.4210165,-123.8034653
482,https://www.coffeereview.com/review/borena-ethiopia/,"Spyhouse Coffee Roasters, Minneapolis, Minnesota",44.977753,-93.2650108
483,https://www.coffeereview.com/review/borneo-sabah-arabica/,"Paradise Roasters, Minneapolis, MInnesota",44.977753,-93.2650108
484,https://www.coffeereview.com/review/boru-batak-sumatra/,"Notch Coffee, Vancouver, British Columbia, Canada",49.1392861,-123.0144674
485,https://www.coffeereview.com/review/bossa-nova-espresso/,"Barefoot Coffee Roasters, Santa Clara, California",37.3657624,-121.9410338
486,https://www.coffeereview.com/review/bou-games-gold-2012/,"Caribou Coffee, Minneapolis, Minnesota",44.977753,-93.2650108
487,https://www.coffeereview.com/review/bouquet-serenade-1982-espresso-blend/,"Buon Caffe, Taipei, Taiwan",25.0055574,121.4902343
488,https://www.coffeereview.com/review/bourbon-barrel-aged-ethiopia-cold-brew/,"Regent Coffee, Glendale, California",34.14976920000001,-118.2552571
489,https://www.coffeereview.com/review/bourbon-barrel-aged-kenya-baragu/,"Modern Times Coffee, San Diego, California",32.7119024,-117.156356
490,https://www.coffeereview.com/review/bourbon-barrel-aged-kenya-cold-brew/,"Regent Coffee, Glendale, California",34.14976920000001,-118.2552571
491,https://www.coffeereview.com/review/bourbon-duets/,"CofFeeling, Kaohsiung City, Taiwan",22.6272784,120.3014353
492,https://www.coffeereview.com/review/bourbon-green/,"Larin, El Salvador",13.794185,-88.89653
493,https://www.coffeereview.com/review/bourbon-peaberry/,"Hula Daddy Kona Coffee, Holualoa, Hawaii",19.6798923,-155.9702264
494,https://www.coffeereview.com/review/bourbon-pointu-natural/,"Kona Farm Direct, Holualoa, Hawaii",19.6351617,-155.9497219
495,https://www.coffeereview.com/review/bowstring-christmas-blend/,"Bridge Coffee Co., Marysville, California",39.1246553,-121.6245528
496,https://www.coffeereview.com/review/brasil-carmo-de-minas-fazenda-monte-verde-bourbon/,"Victrola Coffee Roasters, Seattle, Washington",47.6061389,-122.3328481
497,https://www.coffeereview.com/review/brasil-cerrado-fazenda-esperanca-lot-302-pulped-natural/,"Victrola Coffee Roasters, Seattle, Washington",47.6061389,-122.3328481
498,https://www.coffeereview.com/review/brasil-cerrado-fazenda-sao-pedro-lot-307-natural/,"Victrola Coffee Roasters, Seattle, Washington",47.6061389,-122.3328481
499,https://www.coffeereview.com/review/brasil-fazenda-aurea/,"Great Plains Coffee Roasting, Sioux Falls, South Dakota",43.4982097,-96.7750587
500,https://www.coffeereview.com/review/brasil-fazenda-chapadao-de-ferro-espresso/,"Coava Coffee Roasters, Portland, Oregon",45.5138663,-122.6554133
501,https://www.coffeereview.com/review/brasil-fazenda-chapadao-de-ferro/,"Coava Coffee Roasters, Portland, Oregon",45.5138663,-122.6554133
502,https://www.coffeereview.com/review/brasil-fazenda-sertao/,"Panther Coffee, Miami, Florida",25.7616798,-80.1917902
503,https://www.coffeereview.com/review/brasil-ipanema-premier-cru-blue-a50-red-anaerobic-natural/,"Buon Caffe, Taipei, Taiwan",25.0055574,121.4902343
504,https://www.coffeereview.com/review/brasil-ipanema-premier-cru-gold-b69-natural/,"Back Home Coffee, Changhua County, Taiwan",24.0517963,120.5161352
505,https://www.coffeereview.com/review/brasil-sitio-sao-gabriel/,"Atomic Cafe Coffee Roasters, Salem, Massachusetts",42.5503233,-70.87813489999999
506,https://www.coffeereview.com/review/brasil-vargem-grande/,"Alpen Sierra, South Lake Tahoe, California",38.939926,-119.9771868
507,https://www.coffeereview.com/review/brazil-2/,"Kavanaugh Coffee, Berkeley, California",37.8715226,-122.273042
508,https://www.coffeereview.com/review/brazil-3/,"Alakef Coffee Roasters, Duluth, Minnesota",46.7998615,-92.08076609999999
509,https://www.coffeereview.com/review/brazil-admilson-jose-galerani-microlot/,"Index Coffee, Fairfax, Virginia",38.8459879,-77.3053035
510,https://www.coffeereview.com/review/brazil-alpenglow-roast/,"Trailhead Coffee Roasters, Portland, Oregon",45.509777,-122.6623
511,https://www.coffeereview.com/review/brazil-alta-mogiana-peaberry/,"Cup to Cup Coffee Roasters, Savannah, Georgia",32.0165781,-80.9871703
512,https://www.coffeereview.com/review/brazil-araponga-temple-select/,"Temple Coffee and Tea, Sacramento, California",38.5781342,-121.4944209
513,https://www.coffeereview.com/review/brazil-araucaria/,"Hunter Bay Coffee Roasters, Missoula, Montana",46.869712,-113.9952018
514,https://www.coffeereview.com/review/brazil-bela-vista-micro-lot/,"Equator Coffees & Teas, San Rafael, California",37.9654242,-122.5230484
515,https://www.coffeereview.com/review/brazil-bourbon-santos-2/,"Coffee Masters, Woodstock, Illinois",42.3147436,-88.44870209999999
516,https://www.coffeereview.com/review/brazil-bourbon-santos/,"Armeno Coffee, Northborough, Massachusetts",42.2921965,-71.6579805
517,https://www.coffeereview.com/review/brazil-cafe-zinho-esperanza-honey/,"Water Avenue Coffee Company, Portland, Oregon",45.52207139999999,-122.681703
518,https://www.coffeereview.com/review/brazil-carmo-de-minas-natural/,"Big Creek Coffee Roasters, Hamilton, Montana",46.2467469,-114.1588122
519,https://www.coffeereview.com/review/brazil-cerrado-2/,"Greyfriar's Coffee and Tea, Chattanooga, Tennessee",35.0457984,-85.3093995
520,https://www.coffeereview.com/review/brazil-cerrado-capim-branco/,"Martinez Fine Coffees, Atlanta, Georgia",33.7501275,-84.3885209
521,https://www.coffeereview.com/review/brazil-cerrado-dark-roast/,"Iron Brew Coffee, Blythewood, South Carolina",34.275599,-81.00596500000002
522,https://www.coffeereview.com/review/brazil-cerrado-light-roast/,"Iron Brew Coffee, Blythewood, South Carolina",34.275599,-81.00596500000002
523,https://www.coffeereview.com/review/brazil-cerrado/,"Atomic Cafe Coffee Roasters, Beverly, Massachusetts",42.5503233,-70.87813489999999
524,https://www.coffeereview.com/review/brazil-chapada-diamantina-fazenda-floresta/,"Soul Work Coffee, Berkeley and Sacramento, California",37.8715226,-122.273042
525,https://www.coffeereview.com/review/brazil-chapadao-de-ferro-espresso/,"Social Coffee & Tea Company, Richmond Hill, Ontario, Canada",43.853672,-79.39272299999999
526,https://www.coffeereview.com/review/brazil-coe/,"Le Brewlife, Taichung, Taiwan",24.1629765,120.6746104
527,https://www.coffeereview.com/review/brazil-conquista-2/,"Good Coffee Club, Charlotte, North Carolina",35.2215548,-80.840116
528,https://www.coffeereview.com/review/brazil-conquista/,"Dilworth Coffee, Charlotte, North Carolina",35.1514102,-80.8316049
529,https://www.coffeereview.com/review/brazil-cup-of-excellence-prize-winner/,"Difference Coffee, London, England",51.5077055,-0.0671826
530,https://www.coffeereview.com/review/brazil-daterra-amarosa-anaerobic-honey/,"Paradise Roasters, Minneapolis, Minnesota",44.977753,-93.2650108
531,https://www.coffeereview.com/review/brazil-daterra-bourbon/,"Pacific Bay Coffee Company, Berkeley, California",37.8715226,-122.273042
532,https://www.coffeereview.com/review/brazil-daterra-opus-1-exotic/,"Uncle Beanz, Perth Amboy, New Jersey",40.5085909,-74.2678615
533,https://www.coffeereview.com/review/brazil-daterra-reserve-cerrado/,"Ecco Caffe, Santa Rosa, California",38.4303364,-122.7218591
534,https://www.coffeereview.com/review/brazil-daterra-south-italian-style-espresso/,"Terroir Coffee, Acton, Massachusetts",42.4850931,-71.43284
535,https://www.coffeereview.com/review/brazil-daterra-sunrise/,"Crescent Moon Coffee & Tea, Mickleton, New Jersey",39.7242454,-75.2185522
536,https://www.coffeereview.com/review/brazil-espirito-santo-pulped-natural/,"Java Blend Coffee Roasters, Halifax, Nova Scotia, Canada",44.6543961,-63.5954552
537,https://www.coffeereview.com/review/brazil-estancia-telese/,"Revel Coffee, Billings, Montana",45.7432555,-108.5995914
538,https://www.coffeereview.com/review/brazil-fancy-bourbon-santos/,"First Colony Coffee & Tea, Norfolk, Virginia",36.8687821,-76.2865182
539,https://www.coffeereview.com/review/brazil-fazenda-alta-vista/,"Old Soul Co., Sacramento, California",38.5749635,-121.4842875
540,https://www.coffeereview.com/review/brazil-fazenda-beneficio-presente-do-sol/,"Bartok Coffee, Taipei City, Taiwan",25.0329636,121.5654268
541,https://www.coffeereview.com/review/brazil-fazenda-boa-sorte-natural-catuai/,"Victrola Coffee Roasters, Seattle, Washington",47.6061389,-122.3328481
542,https://www.coffeereview.com/review/brazil-fazenda-boa-vista/,"Klatch Coffee, San Dimas, California",34.1061591,-117.8224627
543,https://www.coffeereview.com/review/brazil-fazenda-cachoeira-de-gramma-mogiana/,"Ecco Caffe, Santa Rosa, California",38.4303364,-122.7218591
544,https://www.coffeereview.com/review/brazil-fazenda-cachoeira-estate-organic/,"Flying Goat Coffee, Healdsburg, California",38.6107679,-122.8692796
545,https://www.coffeereview.com/review/brazil-fazenda-cachoeira/,"Stone Cup Roasting, Chattanooga, Tennessee",35.0621629,-85.3063488
546,https://www.coffeereview.com/review/brazil-fazenda-cachoeria-da-grama-cup-of-excellence/,"Atomic Cafe Coffee Roasters, Beverly, Massachusetts",42.5503233,-70.87813489999999
547,https://www.coffeereview.com/review/brazil-fazenda-cachoeria-reserve-espresso/,"Ecco Caffe, Santa Rosa, California",38.4303364,-122.7218591
548,https://www.coffeereview.com/review/brazil-fazenda-cambara/,"Klatch Coffee, San Dimas, California",34.1061591,-117.8224627
549,https://www.coffeereview.com/review/brazil-fazenda-chapadao-de-ferro-peaberry/,"Panther Coffee, Miami, Florida",25.7616798,-80.1917902
550,https://www.coffeereview.com/review/brazil-fazenda-do-serrado/,"Parisi Artisan Coffee, Kansas City, Missouri",39.0850124,-94.5856279
551,https://www.coffeereview.com/review/brazil-fazenda-floresta/,"Salt Spring Coffee, Salt Spring Island, British Colombia, Canada",48.8525952,-123.5004603
552,https://www.coffeereview.com/review/brazil-fazenda-furnas-natural/,"Papa Lin's Coffee Roasting, Yorktown Heights, New York",41.2709274,-73.7776336
553,https://www.coffeereview.com/review/brazil-fazenda-lagoa-estates/,"The Roasterie, Kansas City, Missouri",39.0997265,-94.5785667
554,https://www.coffeereview.com/review/brazil-fazenda-lagoa-natural/,"The Roasterie, Kansas City, Missouri",39.0997265,-94.5785667
555,https://www.coffeereview.com/review/brazil-fazenda-lagoa-pulped-natural/,"The Roasterie, Kansas City, Missouri",39.0997265,-94.5785667
556,https://www.coffeereview.com/review/brazil-fazenda-passeio-natural/,"Willoughby's Coffee & Tea, Branford, Connecticut",41.2993747,-72.7667601
557,https://www.coffeereview.com/review/brazil-fazenda-samambaia-natural-fermentation-arara/,"Kakalove Cafe, Chia-Yi, Taiwan",23.4741204,120.4333647
558,https://www.coffeereview.com/review/brazil-fazenda-sao-bento/,"Old Soul Co., Sacramento, California",38.5749635,-121.4842875
559,https://www.coffeereview.com/review/brazil-fazenda-sao-joao-espresso/,"Ecco Caffe, Santa Rosa, California",38.4303364,-122.7218591
560,https://www.coffeereview.com/review/brazil-fazenda-sertaozinho-2/,"Auto Coffee, New Taipei City, Taiwan",25.0169826,121.4627868
561,https://www.coffeereview.com/review/brazil-fazenda-sertaozinho/,"Linea Caffe S.F., San Francisco, California",37.7638051,-122.3952279
562,https://www.coffeereview.com/review/brazil-fazenda-vista-alegre-2/,"Armeno Coffee, Northborough, Massachusetts",42.2921965,-71.6579805
563,https://www.coffeereview.com/review/brazil-fazenda-vista-alegre/,,,
564,https://www.coffeereview.com/review/brazil-fazenda-wagner-2/,"Rao's Coffee Roasting, Amherst, Massachusetts",42.3454239,-72.575472
565,https://www.coffeereview.com/review/brazil-fazenda-wagner/,"The Coffee Tree Roasters, Pittsburgh, Pennsylvania",40.4386612,-79.99723519999999
566,https://www.coffeereview.com/review/brazil-fva-natural-dry/,"City Bean Coffee, West Hollywood, California",34.0552232,-118.4132642
567,https://www.coffeereview.com/review/brazil-gauriroba-natural/,"SOT Coffee Roaster, Osaka, Japan",34.6858163,135.5150125
568,https://www.coffeereview.com/review/brazil-grota-funda/,"Ghost Town Coffee Roasters, Bozeman, Montana",45.6818566,-111.0390742
569,https://www.coffeereview.com/review/brazil-ibicoara-chapada-diamantina-natural/,"SkyTop Coffee, Manlius, New York",43.0011909,-75.9814111
570,https://www.coffeereview.com/review/brazil-ipanema-black-edition-a-41-red-cherry/,"GK Coffee, Yilan, Taiwan, China",24.6730851,121.7475813
571,https://www.coffeereview.com/review/brazil-ipanema-golden-edition-c26-lychee/,"GK Coffee, Yilan, Taiwan, China",24.6730851,121.7475813
572,https://www.coffeereview.com/review/brazil-ipanema-premier-cru-cherry-cold-drip/,"GK Coffee, Yilan, Taiwan, China",24.6730851,121.7475813
573,https://www.coffeereview.com/review/brazil-ipanema-premier-cru-gold-a49-cherry/,"Euphora Coffee, Taipei, Taiwan",25.0329694,121.5654177
574,https://www.coffeereview.com/review/brazil-legender-sitio-taquara-natural/,"Willoughby's Coffee & Tea, Branford, Connecticut",41.2993747,-72.7667601
575,https://www.coffeereview.com/review/brazil-leuven-santa-margarida-estate-lot-129/,"Chromatic Coffee, San Jose, California",37.3207416,-121.9080674
576,https://www.coffeereview.com/review/brazil-matas-de-minas/,"Temple Coffee and Tea, Sacramento, California",38.5781342,-121.4944209
577,https://www.coffeereview.com/review/brazil-mogiana-aparecid-farm/,"CafeTaster, Taipei City, Taiwan",25.0329636,121.5654268
578,https://www.coffeereview.com/review/brazil-mogiana-bourbon-safira/,"Flying Goat Coffee, Healdsburg, California",38.6107679,-122.8692796
579,https://www.coffeereview.com/review/brazil-monte-alegre/,"Kean Coffee, Newport Beach, California",33.6276558,-117.9084044
580,https://www.coffeereview.com/review/brazil-moreninha-formosa-raisin/,"Muddy Dog Roasting, Morrisville, North Carolina",35.8280974,-78.8209981
581,https://www.coffeereview.com/review/brazil-natural-veloso-estate/,"Min Enjoy Cafe, Taipei, Taiwan",25.0338196,121.5323717
582,https://www.coffeereview.com/review/brazil-o-cafe-forte-do-brasil/,"Cafe Pilao, Sao Paulo, Brazil",-23.6033025,-46.6745041
583,https://www.coffeereview.com/review/brazil-opus-1-exotic/,"Caffe Pronto Coffee Roastery, Annapolis, Maryland",38.976057,-76.51245899999999
584,https://www.coffeereview.com/review/brazil-ouro-de-minas-pulped-natural/,"Corvus Coffee Roasters, Denver, Colorado",39.68495800000001,-104.987228
585,https://www.coffeereview.com/review/brazil-ouro-fino/,"Reunion Island Coffee, Oakville, Ontario, Canada",43.49359889999999,-79.6499252
586,https://www.coffeereview.com/review/brazil-para-ela-natural/,"Durango Coffee Company, Durango, Colorado",37.2716548,-107.8810516
587,https://www.coffeereview.com/review/brazil-paulo-ribeiro-rocha/,"Revel Coffee, Billings, Montana",45.7432555,-108.5995914
588,https://www.coffeereview.com/review/brazil-pedra-azul/,"Neighbors Coffee, Oklahoma City, Oklahoma",35.4807757,-97.5116195
589,https://www.coffeereview.com/review/brazil-pedra-redonda/,"Roast Co. Artisan Coffees, Oakland, California",37.7908303,-122.2527083
590,https://www.coffeereview.com/review/brazil-peixoto-peaberry/,"True Coffee Roasters, Fitchburg, Wisconsin",43.0185843,-89.47285409999999
591,https://www.coffeereview.com/review/brazil-pocas-de-caldas-rainha-natural/,"Namusairo Coffee, Seoul, South Korea",37.5746756,126.9709374
592,https://www.coffeereview.com/review/brazil-poco-fundo-fair-trade/,"Barefoot Coffee Roasters, Santa Clara, California",37.3657624,-121.9410338
593,https://www.coffeereview.com/review/brazil-poco-fundo/,"Barefoot Coffee Roasters, Santa Clara, California",37.3657624,-121.9410338
594,https://www.coffeereview.com/review/brazil-pocos-de-caldas-s-o-espresso/,"Paradise Roasters, Ramsey, Minnesota",45.2611,-93.45
595,https://www.coffeereview.com/review/brazil-pulped-natural/,"Nook Bakery & Coffee Bar, Philadelphia, Pennsylvania",39.9527109,-75.1732272
596,https://www.coffeereview.com/review/brazil-recreio-selectivo/,"Topeca Coffee Roasters, Tulsa, Oklahoma",36.1598912,-95.9759772
597,https://www.coffeereview.com/review/brazil-red-catuai-double-anaerobic/,"Spix's Cafe, Taipei, Taiwan",25.1048677,121.4852671
598,https://www.coffeereview.com/review/brazil-rodomunho-natural-espresso/,"Temple Coffee and Tea, Sacramento, California",38.5781342,-121.4944209
599,https://www.coffeereview.com/review/brazil-santa-terezinha/,"Ecco Caffe, Santa Rosa, California",38.4303364,-122.7218591
600,https://www.coffeereview.com/review/brazil-santos-2-amber-based-multi-roasting/,"BEI Coffee Roasters, Hong Kong, China",22.380183,114.2708765
601,https://www.coffeereview.com/review/brazil-santos-2-inari-roasting/,"BEI Coffee Roasters, Hong Kong, China",22.380183,114.2708765
602,https://www.coffeereview.com/review/brazil-santos/,"Supreme Bean Coffee Roasters, North Hollywood, California",34.1750544,-118.3787771
603,https://www.coffeereview.com/review/brazil-serra-do-bone/,"Temple Coffee and Tea, Sacramento, California",38.5781342,-121.4944209
604,https://www.coffeereview.com/review/brazil-serra-negra/,"PT's Coffee Roasting Co., Topeka, Kansas",38.9475122,-95.693775
605,https://www.coffeereview.com/review/brazil-sertaozinho/,"Starbucks Reserve Roastery, Seattle, Washington",47.61404,-122.3281
606,https://www.coffeereview.com/review/brazil-sitio-baixadao/,"Starbucks Reserve Roastery, Seattle, Washington",47.61404,-122.3281
607,https://www.coffeereview.com/review/brazil-sitio-do-tanque/,"Gavagai, Kaohsiung City, Taiwan",22.6272784,120.3014353
608,https://www.coffeereview.com/review/brazil-sitio-ponte-fazenda-ponte/,"Peach Coffee Roasters, Johns Creek, Georgia",34.044203,-84.22432979999999
609,https://www.coffeereview.com/review/brazil-vila-boa-anaerobic-natural/,"Pinup Coffee Co., Virginia Beach, Virginia",36.8240811,-76.0583043
610,https://www.coffeereview.com/review/brazil-vista-alegre/,"Henry's House of Coffee, San Francisco, California",37.7542002,-122.4812254
611,https://www.coffeereview.com/review/brazil-vivenda-das-aguas/,"Hunter Bay Coffee Roasters, Missoula, Montana",46.869712,-113.9952018
612,https://www.coffeereview.com/review/brazil-washed-green/,"Monte Alegre, Brazil",-2.0009526,-54.07350229999999
613,https://www.coffeereview.com/review/brazil-yellow-bourbon-laranjal-farms/,"Willoughby's Coffee & Tea, Branford, Connecticut",41.2993747,-72.7667601
614,https://www.coffeereview.com/review/brazil-yellow-bourbon/,"Paradise Roasters, Anoka, Minnesota",45.1977428,-93.3871758
615,https://www.coffeereview.com/review/brazil-yellow-catuai-esperana-joao-zinho-souza/,"Ritual Coffee Roasters, San Francisco, California",37.7749295,-122.4194155
616,https://www.coffeereview.com/review/brazil-zinho-peaberry-natural/,"Caravan Coffee, Newberg, Oregon",45.2926036,-122.9527416
617,https://www.coffeereview.com/review/brazilian-2/,"St. Ives Coffee Roasters, Gainesville, Georgia",34.2796784,-83.8327968
618,https://www.coffeereview.com/review/brazilian-cerrado-capim-branco/,"Martinez Fine Coffees, Atlanta, Georgia",33.7501275,-84.3885209
619,https://www.coffeereview.com/review/brazilian-medium-roast/,"Carvalho Coffee, Oakville, Ontario, Canada",43.4133063,-79.73331859999999
620,https://www.coffeereview.com/review/brazilian-prima-qualita/,"Gridge's Coffee & Roasting, Cookeville, Tennessee",36.1625445,-85.4988041
621,https://www.coffeereview.com/review/brazilian/,"Ink Coffee, Aspen, Colorado",39.187339,-106.8185738
622,https://www.coffeereview.com/review/brazil/,"Mr. Espresso, Oakland, California",37.799079,-122.281303
623,https://www.coffeereview.com/review/breakfast-blend-10/,"Steep & Brew, Madison, Wisconsin",43.075041,-89.39451439999999
624,https://www.coffeereview.com/review/breakfast-blend-11/,"Klatch Coffee, San Dimas, California",34.1061591,-117.8224627
625,https://www.coffeereview.com/review/breakfast-blend-12/,"Alterra Coffee Roasters, Milwaukee, Wisconsin",43.029653,-87.9105852
626,https://www.coffeereview.com/review/breakfast-blend-13/,"Gridge's Coffee & Roasting, Cookeville, Tennessee",36.1625445,-85.4988041
627,https://www.coffeereview.com/review/breakfast-blend-14/,"American Favorites, Portland, Oregon",45.515232,-122.6783853
628,https://www.coffeereview.com/review/breakfast-blend-15/,"Green Mountain Coffee, Waterbury, Vermont",44.3350974,-72.75185479999999
629,https://www.coffeereview.com/review/breakfast-blend-16/,"Tully's Coffee, Seattle, Washington",47.6061389,-122.3328481
630,https://www.coffeereview.com/review/breakfast-blend-17/,"Tully's Coffee, Seattle, Washington",47.6061389,-122.3328481
631,https://www.coffeereview.com/review/breakfast-blend-18/,"Green Mountain Coffee, Waterbury, Vermont",44.3350974,-72.75185479999999
632,https://www.coffeereview.com/review/breakfast-blend-19/,"Cafe Excellence, Audubon, Pennsylvania",40.1251989,-75.4135927
633,https://www.coffeereview.com/review/breakfast-blend-2/,"Metropolis Coffee, Chicago, Illinois",41.99439720000001,-87.6572444
634,https://www.coffeereview.com/review/breakfast-blend-3/,"Millstone Coffee Company, Cincinnati, Ohio",39.1031182,-84.5120196
635,https://www.coffeereview.com/review/breakfast-blend-4/,"Buena Vista Coffee (Jewel-Osco), Salt Lake City, Utah",40.7605601,-111.8881397
636,https://www.coffeereview.com/review/breakfast-blend-5/,"Torreo Coffee, Philadelphia, Pennsylvania",39.9525839,-75.1652215
637,https://www.coffeereview.com/review/breakfast-blend-6/,"Starbucks Coffee, Seattle, Washington",47.64975,-122.3499553
638,https://www.coffeereview.com/review/breakfast-blend-7/,"Green Mountain Coffee, Waterbury, Vermont",44.3350974,-72.75185479999999
639,https://www.coffeereview.com/review/breakfast-blend-8/,"Coffee Masters, Spring Grove, Illinois",42.438092,-88.253261
640,https://www.coffeereview.com/review/breakfast-blend-9/,"Steep & Brew, Madison, Wisconsin",43.075041,-89.39451439999999
641,https://www.coffeereview.com/review/breakfast-blend-decaf-fair-trade-organic/,"Green Mountain Coffee, Waterbury, Vermont",44.3350974,-72.75185479999999
642,https://www.coffeereview.com/review/breakfast-blend-fair-trade-organic-2/,"Green Mountain Coffee, Waterbury, Vermont",44.3350974,-72.75185479999999
643,https://www.coffeereview.com/review/breakfast-blend-fair-trade-organic/,"Green Mountain Coffee, Waterbury, Vermont",44.3350974,-72.75185479999999
644,https://www.coffeereview.com/review/breakfast-blend-k-cup-2/,"Green Mountain Coffee, Waterbury, Vermont",44.3350974,-72.75185479999999
645,https://www.coffeereview.com/review/breakfast-blend-k-cup-3/,"Green Mountain Coffee, Waterbury, Vermont",44.3350974,-72.75185479999999
646,https://www.coffeereview.com/review/breakfast-blend-k-cup-4/,"Tully's Coffee, Seattle, Washington",47.6061389,-122.3328481
647,https://www.coffeereview.com/review/breakfast-blend-k-cup-5/,"Tully's Coffee, Seattle, Washington",47.6061389,-122.3328481
648,https://www.coffeereview.com/review/breakfast-blend-k-cup-6/,"Green Mountain Coffee, Waterbury, Vermont",44.3350974,-72.75185479999999
649,https://www.coffeereview.com/review/breakfast-blend-k-cup/,"Green Mountain Coffee, Waterbury, Vermont",44.3350974,-72.75185479999999
650,https://www.coffeereview.com/review/breakfast-blend-rainforest-alliance/,"Sam's Choice (Walmart), Bentonville, Arkansas",36.3574782,-94.2146461
651,https://www.coffeereview.com/review/breakfast-blend/,"Green Mountain Coffee, Waterbury, Vermont",44.3350974,-72.75185479999999
652,https://www.coffeereview.com/review/bremen-decaf-no-907/,"Café Del Mundo, Anchorage, Alaska",61.1939472,-149.8783336
653,https://www.coffeereview.com/review/bridgetown-blend-2/,"Bridgetown Coffee, Portland, Oregon",45.53931619999999,-122.6952363
654,https://www.coffeereview.com/review/bridgetown-blend/,"Bridgetown Coffee, Portland, Oregon",45.53931619999999,-122.6952363
655,https://www.coffeereview.com/review/bright-house-signature-coffee/,"Red Bean Coffee, Taoyuan City, Taiwan",24.9925185,121.305975
656,https://www.coffeereview.com/review/bright-minds/,"Greater Goods Coffee Roasters, Austin, Texas",30.267153,-97.7430608
657,https://www.coffeereview.com/review/british-style-espresso-blend/,"Cozy House Coffee, Taipei City, Taiwan",25.0636465,121.5024629
658,https://www.coffeereview.com/review/brix-breaker-yellow-pacamara-carbonic-maceration-nanolot/,"Eccentricity Coffee Co., Cleveland, Ohio",41.49932,-81.6943605
659,https://www.coffeereview.com/review/brocksen-gate-estate-kona-pele-roast/,"Pele Plantations, Honaunau, Hawaii",19.421344,-155.8777429
660,https://www.coffeereview.com/review/brothers-espresso/,"Conscious Cup Coffee Roasters, Crystal Lake, Illinois",42.2451754,-88.32498939999999
661,https://www.coffeereview.com/review/brown-bear-melange-aka-kyles-blend/,"Walla Walla Roastery, Walla Walla, Washington",46.0894444,-118.2794444
662,https://www.coffeereview.com/review/brown-gold/,"Brown Gold, Fort Worth, Texas",32.7832085,-97.4219844
663,https://www.coffeereview.com/review/bubble-gum-caldas-caturra-submerged/,"Regent Coffee, Glendale, California",34.14976920000001,-118.2552571
664,https://www.coffeereview.com/review/bucaramanga-green-2/,,,
665,https://www.coffeereview.com/review/bucaramanga-green/,,,
666,https://www.coffeereview.com/review/buena-vista-farm-colombia/,"OQ Coffee Co., Highland Park, New Jersey",40.500863,-74.4232577
667,https://www.coffeereview.com/review/buena-vista-pink-bourbon-colombia/,"JBC Coffee Roasters, Madison, Wisconsin",43.051081,-89.2787255
668,https://www.coffeereview.com/review/buesaco-colombia-2/,"JBC Coffee Roasters, Madison, Wisconsin",43.051081,-89.2787255
669,https://www.coffeereview.com/review/buesaco-colombia-espresso/,"JBC Coffee Roasters, Madison, Wisconsin",43.051081,-89.2787255
670,https://www.coffeereview.com/review/buesaco-colombia/,"JBC Coffee Roasters, Madison, Wisconsin",43.051081,-89.2787255
671,https://www.coffeereview.com/review/bufcafe-rwanda-2/,"JBC Coffee Roasters, Madison, Wisconsin",43.051081,-89.2787255
672,https://www.coffeereview.com/review/bufcafe-rwanda-espresso-2/,"JBC Coffee Roasters, Madison, Wisconsin",43.051081,-89.2787255
673,https://www.coffeereview.com/review/bufcafe-rwanda-espresso-3/,"JBC Coffee Roasters, Madison, Wisconsin",43.051081,-89.2787255
674,https://www.coffeereview.com/review/bufcafe-rwanda-espresso/,"JBC Coffee Roasters, Madison, Wisconsin",43.051081,-89.2787255
675,https://www.coffeereview.com/review/bufcafe-rwanda/,"JBC Coffee Roasters, Madison, Wisconsin",43.051081,-89.2787255
676,https://www.coffeereview.com/review/bull-demon-king-brew-bag/,"Simon Hsieh Aroma Roast Coffees, Taoyuan, Taiwan, China",24.9936281,121.3009798
677,https://www.coffeereview.com/review/bull-demon-king/,"Simon Hsieh Aroma Roast Coffees, Taoyuan, Taiwan, China",24.9936281,121.3009798
678,https://www.coffeereview.com/review/bull-espresso-blend/,"MoonMoon Coffee, New Taipei City, Taiwan",24.9974157,121.5186709
679,https://www.coffeereview.com/review/bullet-espresso-2/,"Reunion Island Coffee, Oakville, Ontario, Canada",43.49359889999999,-79.6499252
680,https://www.coffeereview.com/review/bullet-espresso-3/,"Reunion Coffee Roasters, Oakville, Ontario, Canada",43.49359889999999,-79.6499252
681,https://www.coffeereview.com/review/bullet-espresso/,"Reunion Island Coffee, Oakville, Ontario, Canada",43.49359889999999,-79.6499252
682,https://www.coffeereview.com/review/bumpkin-espresso/,"Mango Cafe, Taipei, Taiwan",25.0329694,121.5654177
683,https://www.coffeereview.com/review/buna-boka-1/,"JBC Coffee Roasters, Madison, Wisconsin",43.051081,-89.2787255
684,https://www.coffeereview.com/review/bunny-kitty-blend/,"Jaunt Coffee Roasters, San Diego, California",32.8965857,-117.1374155
685,https://www.coffeereview.com/review/burundi-2/,"Mystic Monk Coffee, Clark, Wyoming",44.8993923,-109.1509804
686,https://www.coffeereview.com/review/burundi-3/,"Mystic Monk Coffee, Clark, Wyoming",44.8993923,-109.1509804
687,https://www.coffeereview.com/review/burundi-buhorwa-2/,"Big Shoulders Coffee, Chicago, Illinois",41.8781136,-87.6297982
688,https://www.coffeereview.com/review/burundi-buhorwa-3/,"Big Shoulders Coffee, Chicago, Illinois",41.8781136,-87.6297982
689,https://www.coffeereview.com/review/burundi-buhorwa/,"Drift Away Coffee, Brooklyn, New York",40.7193172,-73.93925949999999
690,https://www.coffeereview.com/review/burundi-bukeye/,"Succulent Coffee Roasters, Huntington Beach, California",33.7127403,-118.0638439
691,https://www.coffeereview.com/review/burundi-bwayi-lot-5/,"Paradise Roasters, Ramsey, Minnesota",45.2611,-93.45
692,https://www.coffeereview.com/review/burundi-bwayi-lot-no-8/,"Counter Culture Coffee, Durham, North Carolina",35.996619,-78.88829369999999
693,https://www.coffeereview.com/review/burundi-bwayi/,"Thirty-Thirty Coffee Co., Peoria, Illinois",40.6967517,-89.59436319999999
694,https://www.coffeereview.com/review/burundi-dukorerikawa-natural/,"Flight Coffee Co., Bedford, New Hampshire",42.9387628,-71.5257706
695,https://www.coffeereview.com/review/burundi-gaharo-hill-long-miles-coffee-project-natural/,"Mustard Seed Cafe, New Taipei, Taiwan",25.0018264,121.4743676
696,https://www.coffeereview.com/review/burundi-gahehe-washing-station-microlot-honey/,"Oughtred Roasting Works, Victoria, British Columbia, Canada",48.4284207,-123.3656444
697,https://www.coffeereview.com/review/burundi-gitwe-natural-bourbon/,"Olympia Coffee Roasting, Olympia, Washington",47.0236189,-122.8959624
698,https://www.coffeereview.com/review/burundi-heza-station/,"BigFace Coffee, Miami, Florida",25.8131441,-80.1947204
699,https://www.coffeereview.com/review/burundi-kabarore-commune/,"Jaunt Coffee Roasters, San Diego, California",32.8965857,-117.1374155
700,https://www.coffeereview.com/review/burundi-karehe/,"Boon Boona Coffee, Renton, Washington",47.4797895,-122.2069431
701,https://www.coffeereview.com/review/burundi-kayanza-cima-yeast-natural/,"Side by Each Brewing Co., Auburn, Maine",44.08026479999999,-70.2767307
702,https://www.coffeereview.com/review/burundi-kayanza-gatore-lot-3/,"PT's Coffee Roasting Co., Topeka, Kansas",38.9475122,-95.693775
703,https://www.coffeereview.com/review/burundi-kayanza-gitika/,"Revel Coffee, Billings, Montana",45.7432555,-108.5995914
704,https://www.coffeereview.com/review/burundi-kayanza-kabuye-mpanga-natural/,"Kakalove Cafe, Chia-Yi, Taiwan",23.4741204,120.4333647
705,https://www.coffeereview.com/review/burundi-kayanza-kiryama-micro-lot/,"Coffea Roasterie, Sioux Falls, South Dakota",43.5460223,-96.731265
706,https://www.coffeereview.com/review/burundi-kayanza-ninga/,"Blue Bottle Coffee, Oakland, California",37.8043514,-122.2711639
707,https://www.coffeereview.com/review/burundi-kayanza-province-mpanga-washing-station/,"Victrola Coffee Roasters, Seattle, Washington",47.6061389,-122.3328481
708,https://www.coffeereview.com/review/burundi-kayanza/,"Bard Coffee, Portland, Maine",43.6576744,-70.2552393
709,https://www.coffeereview.com/review/burundi-kibingo-2/,"PERC Coffee Roasters, Savannah, Georgia",32.0808989,-81.091203
710,https://www.coffeereview.com/review/burundi-kibingo-intenso/,"Regent Coffee, Glendale, California",34.14976920000001,-118.2552571
711,https://www.coffeereview.com/review/burundi-kibingo/,"Big Shoulders Coffee, Chicago, Illinois",41.8781136,-87.6297982
712,https://www.coffeereview.com/review/burundi-kinyovu-2/,"Kaldi's Coffee, St. Louis, Missouri",38.6270025,-90.19940419999999
713,https://www.coffeereview.com/review/burundi-kinyovu-3/,"Valverde Coffee Roasters, Salisbury, Massachusetts",42.8425598,-70.89867629999999
714,https://www.coffeereview.com/review/burundi-kinyovu-micro-mill/,"Fratello Coffee Roasters, Calgary, Alberta, Canada",51.0192412,-114.0410502
715,https://www.coffeereview.com/review/burundi-kinyovu/,"Kaldi's Coffee Roasting, St. Louis, Missouri",38.6302592,-90.2467387
716,https://www.coffeereview.com/review/burundi-kirimiro-teka-lot-2/,"Bird Rock Coffee Roasters, La Jolla, California",32.8790308,-117.2325748
717,https://www.coffeereview.com/review/burundi-kiryama-2/,"Ghost Town Coffee Roasters, Bozeman, Montana",45.6818566,-111.0390742
718,https://www.coffeereview.com/review/burundi-kiryama-kayanza/,"Kean Coffee, Newport Beach, California",33.6276558,-117.9084044
719,https://www.coffeereview.com/review/burundi-kiryama-micro-lot-8/,"Coffea Roasterie, Sioux Falls, South Dakota",43.5460223,-96.731265
720,https://www.coffeereview.com/review/burundi-kiryama-micro-lot/,"Olympia Coffee Roasting, Olympia, Washington",47.0236189,-122.8959624
721,https://www.coffeereview.com/review/burundi-kiryama-washing-station/,"Willoughby's Coffee and Tea, Branford, Connecticut",41.2993747,-72.7667601
722,https://www.coffeereview.com/review/burundi-kiryama/,"Terroir Coffee, Acton, Massachusetts",42.4850931,-71.43284
723,https://www.coffeereview.com/review/burundi-long-miles-coffee-project-natural/,"Green Stone Coffee, Taipei, Taiwan",25.0279123,121.5502218
724,https://www.coffeereview.com/review/burundi-mikuba-honey-microlot-1/,"Olympia Coffee, Olympia, Washington",47.0451842,-122.895355
725,https://www.coffeereview.com/review/burundi-mpanga/,"Victrola Coffee Roasters, Seattle, Washington",47.6061389,-122.3328481
726,https://www.coffeereview.com/review/burundi-murambi-hill/,"Jackrabbit Java, Thermopolis, Wyoming",43.64637889999999,-108.2110449
727,https://www.coffeereview.com/review/burundi-mwurire-2/,"PT's Coffee Roasting Co., Topeka, Kansas",38.9475122,-95.693775
728,https://www.coffeereview.com/review/burundi-mwurire/,"Conservatory for Coffee, Tea and Cocoa, Culver City, California",34.0206238,-118.3994964
729,https://www.coffeereview.com/review/burundi-natural-anaerobic-kibingo/,"Amavida Coffee Roasters, Santa Rosa Beach, Florida",30.3204162,-86.1382825
730,https://www.coffeereview.com/review/burundi-nemba-washed-process/,"Wonderstate Coffee, Viroqua, Wisconsin",43.57204,-90.887186
731,https://www.coffeereview.com/review/burundi-nemba/,"Amavida Coffee Roasters, Santa Rosa Beach, Florida",30.3204162,-86.1382825
732,https://www.coffeereview.com/review/burundi-ngoma/,"Mystic Monk Coffee, Clark, Wyoming",44.8993923,-109.1509804
733,https://www.coffeereview.com/review/burundi-ngozi-gihere-2/,"Terroir Coffee, Acton, Massachusetts",42.4850931,-71.43284
734,https://www.coffeereview.com/review/burundi-nkonge-hill-red-honey/,"Caffeic, Helena, Montana",46.5891452,-112.0391057
735,https://www.coffeereview.com/review/burundi-nyarunasi-muramuya/,"Kakalove Cafe, Chia-Yi, Taiwan",23.4741204,120.4333647
736,https://www.coffeereview.com/review/burundi-reserve/,"Big Shoulders Coffee, Chicago, Illinois",41.8781136,-87.6297982
737,https://www.coffeereview.com/review/burundi-shamba/,"Cafe Grumpy, Brooklyn, New York",40.6652361,-73.9826702
738,https://www.coffeereview.com/review/burundi-sogestal-mumirwa/,"Temple Coffee and Tea, Sacramento, California",38.5781342,-121.4944209
739,https://www.coffeereview.com/review/burundi-turihamwe/,"Temple Coffee, Sacramento, California",38.5798523,-121.4938156
740,https://www.coffeereview.com/review/burundi-washed-crystal/,"Simon Hsieh’s Aroma Roast Coffees, Taoyuan, Taiwan, China",24.9936281,121.3009798
741,https://www.coffeereview.com/review/burundi-women-of-turihamwe/,"Equator Coffees, San Rafael, California",37.9654242,-122.5230484
742,https://www.coffeereview.com/review/burundi/,"Kean Coffee, Newport Beach, California",33.6276558,-117.9084044
743,https://www.coffeereview.com/review/butler-cafe-family-series-yirgacheffe-natural-process/,"Comestible Master Company, Taichung, Taiwan",24.1629765,120.6746104
744,https://www.coffeereview.com/review/buzira-burundi-natural/,"JBC Coffee Roasters, Madison, Wisconsin",43.051081,-89.2787255
745,https://www.coffeereview.com/review/buzzworthy-dark-roast-pod/,"Melitta, Clearwater, Florida",27.8987422,-82.7118485
746,https://www.coffeereview.com/review/byrons-maracaturra-natural-nicaragua/,"Thanksgiving Coffee, Fort Bragg, California",39.4210165,-123.8034653
747,https://www.coffeereview.com/review/cable-car-blend/,"San Francisco Coffee, Kuala Lumpur, Malaysia",3.1717424,101.6970415
748,https://www.coffeereview.com/review/cachajinas-guatemala-huehuetenango/,"Barrington Coffee Roasting Co., Lee, Massachusetts",42.28408810000001,-73.2572708
749,https://www.coffeereview.com/review/caf-amazonico-green/,,,
750,https://www.coffeereview.com/review/caf-inkaico-del-peru/,"Caffe Lusso Coffee Roasters, Redmond, Washington",47.66358880000001,-122.1040235
751,https://www.coffeereview.com/review/caf-la-vereda-green/,,,
752,https://www.coffeereview.com/review/caf-sierra-nevada-green/,,,
753,https://www.coffeereview.com/review/caf-tierra-ethiopia-yirgacheffe-fair-trade-organic/,"Coffee Bean International, Portland, Oregon",45.5691593,-122.5685861
754,https://www.coffeereview.com/review/caf-toledo-green/,,,
755,https://www.coffeereview.com/review/caf-virgen-de-oro/,"Exportadora de Café Condor, Antioquia, Colombia",6.2476598,-75.565816
756,https://www.coffeereview.com/review/cafe-blend/,"Dunkin' Donuts, Randolph, Massachusetts",42.1657524,-71.0451057
757,https://www.coffeereview.com/review/cafe-domingo/,"Peet's Coffee & Tea, Berkeley, California",37.8311524,-122.2871268
758,https://www.coffeereview.com/review/cafe-est-espresso/,"Cafe Est, New Taipei City, Taiwan",24.9999264,121.5182499
759,https://www.coffeereview.com/review/cafe-femenino-rwandan/,"Just Love Coffee Roasters, Murfreesboro, Tennessee",35.8699964,-86.3873445
